{
"type": "FeatureCollection",
"features": [
{ "type": "Feature", "properties": { "id": 1.0, "name": "Absdorf", "no_alle": 1.0, "no_activity": 0.0, "no_reise": 0.0, "no_bi": 0.0, "no_gg": 1.0, "x": 48.4, "y": 15.983, "prazision": 1.0, "typ": "gemeinde", "noten": null, "region0": "Niederösterreich", "region1": "Niederösterreich", "region2": "Nordostniederösterreich", "Region2shortcut": "NONÖ", "region3": "Nordostniederösterreich" }, "geometry": { "type": "Point", "coordinates": [ 15.983, 48.4 ] } },
{ "type": "Feature", "properties": { "id": 2.0, "name": "Admont", "no_alle": 7.0, "no_activity": 0.0, "no_reise": 0.0, "no_bi": 7.0, "no_gg": 0.0, "x": 47.583, "y": 14.467, "prazision": 1.0, "typ": "gemeinde", "noten": null, "region0": "Steiermark", "region1": "Steiermark", "region2": "Nordsteiermark", "Region2shortcut": "NS", "region3": "Nordsteiermark" }, "geometry": { "type": "Point", "coordinates": [ 14.467, 47.583 ] } },
{ "type": "Feature", "properties": { "id": 3.0, "name": "Aisthofen in Riedmark", "no_alle": 1.0, "no_activity": 0.0, "no_reise": 0.0, "no_bi": 0.0, "no_gg": 1.0, "x": 48.258, "y": 14.591, "prazision": 3.0, "typ": "gemeinde", "noten": null, "region0": "Niederösterreich", "region1": "Niederösterreich", "region2": "Nordwestniederösterreich", "Region2shortcut": "NWNÖ", "region3": "Nordwestniederösterreich" }, "geometry": { "type": "Point", "coordinates": [ 14.591, 48.258 ] } },
{ "type": "Feature", "properties": { "id": 4.0, "name": "Aldersbach", "no_alle": 1.0, "no_activity": 0.0, "no_reise": 0.0, "no_bi": 1.0, "no_gg": 0.0, "x": 48.59, "y": 13.09, "prazision": 1.0, "typ": "gemeinde", "noten": null, "region0": "Ausland", "region1": "Bayern", "region2": "Bayern", "Region2shortcut": "Ba", "region3": "Bayern" }, "geometry": { "type": "Point", "coordinates": [ 13.09, 48.59 ] } },
{ "type": "Feature", "properties": { "id": 5.0, "name": "Alland", "no_alle": 1.0, "no_activity": 0.0, "no_reise": 0.0, "no_bi": 0.0, "no_gg": 1.0, "x": 48.057, "y": 16.078, "prazision": 1.0, "typ": "gemeinde", "noten": null, "region0": "Niederösterreich", "region1": "Niederösterreich", "region2": "Südostniederösterreich", "Region2shortcut": "SONÖ", "region3": "Südostniederösterreich" }, "geometry": { "type": "Point", "coordinates": [ 16.078, 48.057 ] } },
{ "type": "Feature", "properties": { "id": 6.0, "name": "Alt-Melon/Altmelon", "no_alle": 1.0, "no_activity": 0.0, "no_reise": 0.0, "no_bi": 1.0, "no_gg": 0.0, "x": 48.462, "y": 14.966, "prazision": 3.0, "typ": "gemeinde", "noten": null, "region0": "Niederösterreich", "region1": "Niederösterreich", "region2": "Nordwestniederösterreich", "Region2shortcut": "NWNÖ", "region3": "Nordwestniederösterreich" }, "geometry": { "type": "Point", "coordinates": [ 14.966, 48.462 ] } },
{ "type": "Feature", "properties": { "id": 7.0, "name": "Altenburg", "no_alle": 3.0, "no_activity": 0.0, "no_reise": 0.0, "no_bi": 3.0, "no_gg": 0.0, "x": 48.647, "y": 15.593, "prazision": 3.0, "typ": "gemeinde", "noten": null, "region0": "Niederösterreich", "region1": "Niederösterreich", "region2": "Nordwestniederösterreich", "Region2shortcut": "NWNÖ", "region3": "Nordwestniederösterreich" }, "geometry": { "type": "Point", "coordinates": [ 15.593, 48.647 ] } },
{ "type": "Feature", "properties": { "id": null, "name": "Altenburg (bei Wilhelmsburg)", "no_alle": null, "no_activity": null, "no_reise": null, "no_bi": null, "no_gg": null, "x": 48.071, "y": 15.603, "prazision": null, "typ": "gemeinde", "noten": null, "region0": "Niederösterreich", "region1": "Niederösterreich", "region2": "Südwestniederösterreich", "Region2shortcut": "SWNÖ", "region3": "SWNÖ" }, "geometry": { "type": "Point", "coordinates": [ 15.603, 48.071 ] } },
{ "type": "Feature", "properties": { "id": 8.0, "name": "Altenhofen", "no_alle": 1.0, "no_activity": 0.0, "no_reise": 0.0, "no_bi": 0.0, "no_gg": 1.0, "x": 48.182, "y": 14.547, "prazision": 1.0, "typ": "gemeinde", "noten": null, "region0": "Oberösterreich", "region1": "Oberösterreich", "region2": "Oberösterreich", "Region2shortcut": "OÖ", "region3": "Oberösterreich" }, "geometry": { "type": "Point", "coordinates": [ 14.547, 48.182 ] } },
{ "type": "Feature", "properties": { "id": 9.0, "name": "Altpölla", "no_alle": 3.0, "no_activity": 0.0, "no_reise": 0.0, "no_bi": 2.0, "no_gg": 1.0, "x": 48.629, "y": 15.378, "prazision": 1.0, "typ": "gemeinde", "noten": null, "region0": "Niederösterreich", "region1": "Niederösterreich", "region2": "Nordwestniederösterreich", "Region2shortcut": "NWNÖ", "region3": "Nordwestniederösterreich" }, "geometry": { "type": "Point", "coordinates": [ 15.378, 48.629 ] } },
{ "type": "Feature", "properties": { "id": 10.0, "name": "Altzelle", "no_alle": 1.0, "no_activity": 0.0, "no_reise": 0.0, "no_bi": 1.0, "no_gg": 0.0, "x": 51.06, "y": 13.276, "prazision": 1.0, "typ": "gemeinde", "noten": null, "region0": "Ausland", "region1": "Meissen", "region2": "Meissen", "Region2shortcut": "Me", "region3": "Meissen" }, "geometry": { "type": "Point", "coordinates": [ 13.276, 51.06 ] } },
{ "type": "Feature", "properties": { "id": 11.0, "name": "Amstetten", "no_alle": 3.0, "no_activity": 1.0, "no_reise": 1.0, "no_bi": 0.0, "no_gg": 1.0, "x": 48.124, "y": 14.87, "prazision": 1.0, "typ": "gemeinde", "noten": null, "region0": "Niederösterreich", "region1": "Niederösterreich", "region2": "Südwestniederösterreich", "Region2shortcut": "SWNÖ", "region3": "Südwestniederösterreich" }, "geometry": { "type": "Point", "coordinates": [ 14.87, 48.124 ] } },
{ "type": "Feature", "properties": { "id": 12.0, "name": "Apfaltersbach", "no_alle": 1.0, "no_activity": 0.0, "no_reise": 0.0, "no_bi": 0.0, "no_gg": 1.0, "x": 47.676, "y": 15.902, "prazision": 1.0, "typ": "gemeinde", "noten": null, "region0": "Niederösterreich", "region1": "Niederösterreich", "region2": "Südostniederösterreich", "Region2shortcut": "SONÖ", "region3": "Südostniederösterreich" }, "geometry": { "type": "Point", "coordinates": [ 15.902, 47.676 ] } },
{ "type": "Feature", "properties": { "id": 13.0, "name": "Ardagger", "no_alle": 4.0, "no_activity": 0.0, "no_reise": 0.0, "no_bi": 3.0, "no_gg": 1.0, "x": 48.183, "y": 14.833, "prazision": 1.0, "typ": "gemeinde", "noten": null, "region0": "Niederösterreich", "region1": "Niederösterreich", "region2": "Südwestniederösterreich", "Region2shortcut": "SWNÖ", "region3": "Südwestniederösterreich" }, "geometry": { "type": "Point", "coordinates": [ 14.833, 48.183 ] } },
{ "type": "Feature", "properties": { "id": 14.0, "name": "Arnoldstein", "no_alle": 2.0, "no_activity": 1.0, "no_reise": 1.0, "no_bi": 0.0, "no_gg": 0.0, "x": 46.55, "y": 13.75, "prazision": 1.0, "typ": "gemeinde", "noten": null, "region0": "Kärnten", "region1": "Kärnten", "region2": "Ostkärnten", "Region2shortcut": "OK", "region3": "Ostkärnten" }, "geometry": { "type": "Point", "coordinates": [ 13.75, 46.55 ] } },
{ "type": "Feature", "properties": { "id": null, "name": "Arnstein", "no_alle": null, "no_activity": null, "no_reise": null, "no_bi": null, "no_gg": null, "x": 48.03, "y": 16.066, "prazision": null, "typ": "gemeinde", "noten": null, "region0": "Niederösterreich", "region1": "Niederösterreich", "region2": "Südostniederösterreich", "Region2shortcut": "SONÖ", "region3": "Südostniederösterreich" }, "geometry": { "type": "Point", "coordinates": [ 16.066, 48.03 ] } },
{ "type": "Feature", "properties": { "id": 15.0, "name": "Arzwald", "no_alle": 3.0, "no_activity": 0.0, "no_reise": 0.0, "no_bi": 0.0, "no_gg": 3.0, "x": 47.217, "y": 15.283, "prazision": 2.0, "typ": "gemeinde", "noten": null, "region0": "Steiermark", "region1": "Steiermark", "region2": "Mittelsteiermark", "Region2shortcut": "MS", "region3": "Mittelsteiermark" }, "geometry": { "type": "Point", "coordinates": [ 15.283, 47.217 ] } },
{ "type": "Feature", "properties": { "id": 16.0, "name": "Assisi", "no_alle": 2.0, "no_activity": 1.0, "no_reise": 1.0, "no_bi": 0.0, "no_gg": 0.0, "x": 43.075, "y": 12.605, "prazision": 1.0, "typ": "gemeinde", "noten": null, "region0": "Ausland", "region1": "Italien", "region2": "Italien", "Region2shortcut": "It", "region3": "Italien" }, "geometry": { "type": "Point", "coordinates": [ 12.605, 43.075 ] } },
{ "type": "Feature", "properties": { "id": 17.0, "name": "Atzelsdorf", "no_alle": 1.0, "no_activity": 0.0, "no_reise": 0.0, "no_bi": 0.0, "no_gg": 1.0, "x": 48.287, "y": 15.96, "prazision": 1.0, "typ": "gemeinde", "noten": null, "region0": "Niederösterreich", "region1": "Niederösterreich", "region2": "Nordostniederösterreich", "Region2shortcut": "NONÖ", "region3": "Nordostniederösterreich" }, "geometry": { "type": "Point", "coordinates": [ 15.96, 48.287 ] } },
{ "type": "Feature", "properties": { "id": 18.0, "name": "Bad Aussee", "no_alle": 1.0, "no_activity": 0.0, "no_reise": 0.0, "no_bi": 0.0, "no_gg": 1.0, "x": 47.609, "y": 13.784, "prazision": 1.0, "typ": "gemeinde", "noten": null, "region0": "Steiermark", "region1": "Steiermark", "region2": "Nordsteiermark", "Region2shortcut": "NS", "region3": "Nordsteiermark" }, "geometry": { "type": "Point", "coordinates": [ 13.784, 47.609 ] } },
{ "type": "Feature", "properties": { "id": 19.0, "name": "Bad Ischl", "no_alle": 3.0, "no_activity": 0.0, "no_reise": 0.0, "no_bi": 0.0, "no_gg": 3.0, "x": 47.712, "y": 13.621, "prazision": 1.0, "typ": "gemeinde", "noten": null, "region0": "Oberösterreich", "region1": "Oberösterreich", "region2": "Oberösterreich", "Region2shortcut": "OÖ", "region3": "Oberösterreich" }, "geometry": { "type": "Point", "coordinates": [ 13.621, 47.712 ] } },
{ "type": "Feature", "properties": { "id": 20.0, "name": "Bad Radkersburg", "no_alle": 2.0, "no_activity": 1.0, "no_reise": 1.0, "no_bi": 0.0, "no_gg": 0.0, "x": 46.693, "y": 15.991, "prazision": 1.0, "typ": "gemeinde", "noten": null, "region0": "Steiermark", "region1": "Steiermark", "region2": "Mittelsteiermark", "Region2shortcut": "MS", "region3": "Mittelsteiermark" }, "geometry": { "type": "Point", "coordinates": [ 15.991, 46.693 ] } },
{ "type": "Feature", "properties": { "id": 21.0, "name": "Balga", "no_alle": 2.0, "no_activity": 1.0, "no_reise": 1.0, "no_bi": 0.0, "no_gg": 0.0, "x": 54.557, "y": 19.998, "prazision": 1.0, "typ": "gemeinde", "noten": null, "region0": "Ausland", "region1": "Preussen (Ausland)", "region2": "Preussen (Ausland)", "Region2shortcut": "Pre", "region3": "Preussen (Ausland)" }, "geometry": { "type": "Point", "coordinates": [ 19.998, 54.557 ] } },
{ "type": "Feature", "properties": { "id": 22.0, "name": "Baumgartenberg", "no_alle": 3.0, "no_activity": 0.0, "no_reise": 0.0, "no_bi": 3.0, "no_gg": 0.0, "x": 48.209, "y": 14.744, "prazision": 1.0, "typ": "gemeinde", "noten": null, "region0": "Niederösterreich", "region1": "Niederösterreich", "region2": "Nordwestniederösterreich", "Region2shortcut": "NWNÖ", "region3": "Nordwestniederösterreich" }, "geometry": { "type": "Point", "coordinates": [ 14.744, 48.209 ] } },
{ "type": "Feature", "properties": { "id": 23.0, "name": "Baumkirchen", "no_alle": 1.0, "no_activity": 0.0, "no_reise": 0.0, "no_bi": 1.0, "no_gg": 0.0, "x": 47.152, "y": 14.75, "prazision": 1.0, "typ": "gemeinde", "noten": null, "region0": "Steiermark", "region1": "Steiermark", "region2": "Nordsteiermark", "Region2shortcut": "NS", "region3": "Nordsteiermark" }, "geometry": { "type": "Point", "coordinates": [ 14.75, 47.152 ] } },
{ "type": "Feature", "properties": { "id": 24.0, "name": "Bautzen", "no_alle": 0.0, "no_activity": 0.0, "no_reise": 0.0, "no_bi": 0.0, "no_gg": 0.0, "x": 51.182, "y": 14.423, "prazision": 1.0, "typ": "gemeinde", "noten": null, "region0": "Ausland", "region1": "Bautzenland", "region2": "Bautzenland", "Region2shortcut": "Bt", "region3": "Bautzenland" }, "geometry": { "type": "Point", "coordinates": [ 14.423, 51.182 ] } },
{ "type": "Feature", "properties": { "id": 25.0, "name": "Bautzenland", "no_alle": 0.0, "no_activity": 0.0, "no_reise": 0.0, "no_bi": 0.0, "no_gg": 0.0, "x": null, "y": null, "prazision": 2.0, "typ": "region", "noten": null, "region0": "Ausland", "region1": "Bautzenland", "region2": "Bautzenland", "Region2shortcut": "Bt", "region3": "Bautzenland" }, "geometry": null },
{ "type": "Feature", "properties": { "id": 26.0, "name": "Bayern", "no_alle": 2.0, "no_activity": 0.0, "no_reise": 0.0, "no_bi": 2.0, "no_gg": 0.0, "x": null, "y": null, "prazision": 2.0, "typ": "region", "noten": null, "region0": "Ausland", "region1": "Bayern", "region2": "Bayern", "Region2shortcut": "Ba", "region3": "Bayern" }, "geometry": null },
{ "type": "Feature", "properties": { "id": 27.0, "name": "Benešov", "no_alle": 1.0, "no_activity": 0.0, "no_reise": 0.0, "no_bi": 1.0, "no_gg": 0.0, "x": 49.932, "y": 18.005, "prazision": 1.0, "typ": "gemeinde", "noten": null, "region0": "Schlesien", "region1": "Schlesien", "region2": "Troppauer Teil", "Region2shortcut": "TT", "region3": "Troppauer Teil" }, "geometry": { "type": "Point", "coordinates": [ 18.005, 49.932 ] } },
{ "type": "Feature", "properties": { "id": 28.0, "name": "Beňovice", "no_alle": 2.0, "no_activity": 0.0, "no_reise": 0.0, "no_bi": 0.0, "no_gg": 2.0, "x": 49.391, "y": 13.26, "prazision": 1.0, "typ": "gemeinde", "noten": null, "region0": "Böhmen", "region1": "Böhmen", "region2": "Südwestböhmen", "Region2shortcut": "SWB", "region3": "Südwestböhmen" }, "geometry": { "type": "Point", "coordinates": [ 13.26, 49.391 ] } },
{ "type": "Feature", "properties": { "id": 29.0, "name": "Berchtesgaden", "no_alle": 2.0, "no_activity": 0.0, "no_reise": 0.0, "no_bi": 2.0, "no_gg": 0.0, "x": 47.631, "y": 13.002, "prazision": 1.0, "typ": "gemeinde", "noten": null, "region0": "Ausland", "region1": "Salzburg", "region2": "Salzburg", "Region2shortcut": "Sa", "region3": "Salzburg" }, "geometry": { "type": "Point", "coordinates": [ 13.002, 47.631 ] } },
{ "type": "Feature", "properties": { "id": 30.0, "name": "Beroun", "no_alle": 4.0, "no_activity": 2.0, "no_reise": 2.0, "no_bi": 0.0, "no_gg": 0.0, "x": 49.964, "y": 14.073, "prazision": 1.0, "typ": "gemeinde", "noten": null, "region0": "Böhmen", "region1": "Böhmen", "region2": "Mittelböhmen", "Region2shortcut": "MB", "region3": "Mittelböhmen" }, "geometry": { "type": "Point", "coordinates": [ 14.073, 49.964 ] } },
{ "type": "Feature", "properties": { "id": 31.0, "name": "Bítov", "no_alle": 2.0, "no_activity": 0.0, "no_reise": 0.0, "no_bi": 2.0, "no_gg": 0.0, "x": 48.936, "y": 15.729, "prazision": 1.0, "typ": "gemeinde", "noten": null, "region0": "Mähren", "region1": "Mähren", "region2": "Znaimer Teil", "Region2shortcut": "ZT", "region3": "Znaimer Teil" }, "geometry": { "type": "Point", "coordinates": [ 15.729, 48.936 ] } },
{ "type": "Feature", "properties": { "id": 32.0, "name": "Bítov bei Stříbro", "no_alle": 1.0, "no_activity": 0.0, "no_reise": 0.0, "no_bi": 0.0, "no_gg": 1.0, "x": 49.753, "y": 13.004, "prazision": 2.0, "typ": "gemeinde", "noten": null, "region0": "Böhmen", "region1": "Böhmen", "region2": "Südwestböhmen", "Region2shortcut": "SWB", "region3": "Südwestböhmen" }, "geometry": { "type": "Point", "coordinates": [ 13.004, 49.753 ] } },
{ "type": "Feature", "properties": { "id": 33.0, "name": "Blansko", "no_alle": 4.0, "no_activity": 2.0, "no_reise": 2.0, "no_bi": 0.0, "no_gg": 0.0, "x": 49.363, "y": 16.644, "prazision": 1.0, "typ": "gemeinde", "noten": null, "region0": "Mähren", "region1": "Mähren", "region2": "Brünner Teil", "Region2shortcut": "BT", "region3": "Brünner Teil" }, "geometry": { "type": "Point", "coordinates": [ 16.644, 49.363 ] } },
{ "type": "Feature", "properties": { "id": 34.0, "name": "Bliszyczyce", "no_alle": 1.0, "no_activity": 0.0, "no_reise": 0.0, "no_bi": 0.0, "no_gg": 1.0, "x": 50.082, "y": 17.755, "prazision": 1.0, "typ": "gemeinde", "noten": null, "region0": "Schlesien", "region1": "Schlesien", "region2": "Troppauer Teil", "Region2shortcut": "TT", "region3": "Troppauer Teil" }, "geometry": { "type": "Point", "coordinates": [ 17.755, 50.082 ] } },
{ "type": "Feature", "properties": { "id": 35.0, "name": "Blučina", "no_alle": 1.0, "no_activity": 0.0, "no_reise": 0.0, "no_bi": 0.0, "no_gg": 1.0, "x": 49.055, "y": 16.646, "prazision": 1.0, "typ": "gemeinde", "noten": null, "region0": "Mähren", "region1": "Mähren", "region2": "Brünner Teil", "Region2shortcut": "BT", "region3": "Brünner Teil" }, "geometry": { "type": "Point", "coordinates": [ 16.646, 49.055 ] } },
{ "type": "Feature", "properties": { "id": 36.0, "name": "Böhmen", "no_alle": 8.0, "no_activity": 0.0, "no_reise": 0.0, "no_bi": 8.0, "no_gg": 0.0, "x": null, "y": null, "prazision": 2.0, "typ": "region", "noten": null, "region0": "Böhmen", "region1": "Böhmen", "region2": "Böhmen", "Region2shortcut": "Ba", "region3": "Böhmen" }, "geometry": null },
{ "type": "Feature", "properties": { "id": 37.0, "name": "Böhmisch Bruck", "no_alle": 2.0, "no_activity": 0.0, "no_reise": 0.0, "no_bi": 2.0, "no_gg": 0.0, "x": 49.576, "y": 12.353, "prazision": 1.0, "typ": "gemeinde", "noten": null, "region0": "Ausland", "region1": "Bayern", "region2": "Bayern", "Region2shortcut": "Ba", "region3": "Bayern" }, "geometry": { "type": "Point", "coordinates": [ 12.353, 49.576 ] } },
{ "type": "Feature", "properties": { "id": 38.0, "name": "Böhmischmährische Höhe", "no_alle": 0.0, "no_activity": 0.0, "no_reise": 0.0, "no_bi": 0.0, "no_gg": 0.0, "x": null, "y": null, "prazision": 2.0, "typ": "region", "noten": null, "region0": "Böhmen", "region1": "Böhmen", "region2": "Böhmischmährische Höhe", "Region2shortcut": "BMH", "region3": "Böhmischmährische Höhe" }, "geometry": null },
{ "type": "Feature", "properties": { "id": 39.0, "name": "Boletice", "no_alle": 1.0, "no_activity": 0.0, "no_reise": 0.0, "no_bi": 0.0, "no_gg": 1.0, "x": 48.825, "y": 14.22, "prazision": 1.0, "typ": "gemeinde", "noten": null, "region0": "Böhmen", "region1": "Böhmen", "region2": "Südböhmen", "Region2shortcut": "SB", "region3": "Südböhmen" }, "geometry": { "type": "Point", "coordinates": [ 14.22, 48.825 ] } },
{ "type": "Feature", "properties": { "id": 40.0, "name": "Brandenburg", "no_alle": 0.0, "no_activity": 0.0, "no_reise": 0.0, "no_bi": 0.0, "no_gg": 0.0, "x": null, "y": null, "prazision": 2.0, "typ": "region", "noten": null, "region0": "Ausland", "region1": "Brandenburg", "region2": "Brandenburg", "Region2shortcut": "Br", "region3": "Brandenburg" }, "geometry": null },
{ "type": "Feature", "properties": { "id": 41.0, "name": "Bratislava", "no_alle": 25.0, "no_activity": 10.0, "no_reise": 10.0, "no_bi": 5.0, "no_gg": 0.0, "x": 48.142, "y": 17.103, "prazision": 1.0, "typ": "gemeinde", "noten": null, "region0": "Ungarn", "region1": "Ungarn", "region2": "Westungarn", "Region2shortcut": "WU", "region3": "Westungarn" }, "geometry": { "type": "Point", "coordinates": [ 17.103, 48.142 ] } },
{ "type": "Feature", "properties": { "id": 42.0, "name": "Břevnov", "no_alle": 13.0, "no_activity": 0.0, "no_reise": 0.0, "no_bi": 13.0, "no_gg": 0.0, "x": 50.074, "y": 14.383, "prazision": 1.0, "typ": "gemeinde", "noten": null, "region0": "Böhmen", "region1": "Prag", "region2": "Prag", "Region2shortcut": "Pr", "region3": "Prag" }, "geometry": { "type": "Point", "coordinates": [ 14.383, 50.074 ] } },
{ "type": "Feature", "properties": { "id": 43.0, "name": "Brixen", "no_alle": 1.0, "no_activity": 0.0, "no_reise": 0.0, "no_bi": 1.0, "no_gg": 0.0, "x": 46.716, "y": 11.657, "prazision": 1.0, "typ": "gemeinde", "noten": null, "region0": "Kärnten", "region1": "Kärnten", "region2": "Westkärnten", "Region2shortcut": "WK", "region3": "Westkärnten" }, "geometry": { "type": "Point", "coordinates": [ 11.657, 46.716 ] } },
{ "type": "Feature", "properties": { "id": 44.0, "name": "Brno", "no_alle": 103.0, "no_activity": 42.0, "no_reise": 47.0, "no_bi": 10.0, "no_gg": 4.0, "x": 49.19, "y": 16.61, "prazision": 1.0, "typ": "gemeinde", "noten": null, "region0": "Mähren", "region1": "Mähren", "region2": "Brünner Teil", "Region2shortcut": "BT", "region3": "Brünner Teil" }, "geometry": { "type": "Point", "coordinates": [ 16.61, 49.19 ] } },
{ "type": "Feature", "properties": { "id": 45.0, "name": "Brozany nad Ohří", "no_alle": 1.0, "no_activity": 0.0, "no_reise": 0.0, "no_bi": 0.0, "no_gg": 1.0, "x": 50.454, "y": 14.145, "prazision": 1.0, "typ": "gemeinde", "noten": null, "region0": "Böhmen", "region1": "Böhmen", "region2": "Nordböhmen", "Region2shortcut": "NB", "region3": "Nordböhmen" }, "geometry": { "type": "Point", "coordinates": [ 14.145, 50.454 ] } },
{ "type": "Feature", "properties": { "id": 46.0, "name": "Bruck an der Mur", "no_alle": 2.0, "no_activity": 0.0, "no_reise": 0.0, "no_bi": 2.0, "no_gg": 0.0, "x": 47.41, "y": 15.269, "prazision": 1.0, "typ": "gemeinde", "noten": null, "region0": "Steiermark", "region1": "Steiermark", "region2": "Nordsteiermark", "Region2shortcut": "NS", "region3": "Nordsteiermark" }, "geometry": { "type": "Point", "coordinates": [ 15.269, 47.41 ] } },
{ "type": "Feature", "properties": { "id": 47.0, "name": "Brünner Teil", "no_alle": 0.0, "no_activity": 0.0, "no_reise": 0.0, "no_bi": 0.0, "no_gg": 0.0, "x": null, "y": null, "prazision": 2.0, "typ": "region", "noten": null, "region0": "Mähren", "region1": "Mähren", "region2": "Brünner Teil", "Region2shortcut": "BT", "region3": "Brünner Teil" }, "geometry": null },
{ "type": "Feature", "properties": { "id": 48.0, "name": "Bubeneč", "no_alle": 1.0, "no_activity": 0.0, "no_reise": 0.0, "no_bi": 0.0, "no_gg": 1.0, "x": 50.102, "y": 14.399, "prazision": 1.0, "typ": "gemeinde", "noten": null, "region0": "Böhmen", "region1": "Böhmen", "region2": "Mittelböhmen", "Region2shortcut": "MB", "region3": "Mittelböhmen" }, "geometry": { "type": "Point", "coordinates": [ 14.399, 50.102 ] } },
{ "type": "Feature", "properties": { "id": 49.0, "name": "Buda", "no_alle": 0.0, "no_activity": 0.0, "no_reise": 0.0, "no_bi": 0.0, "no_gg": 0.0, "x": 47.488, "y": 19.046, "prazision": 1.0, "typ": "gemeinde", "noten": null, "region0": "Ungarn", "region1": "Ungarn", "region2": "Westungarn", "Region2shortcut": "WU", "region3": "Westungarn" }, "geometry": { "type": "Point", "coordinates": [ 19.046, 47.488 ] } },
{ "type": "Feature", "properties": { "id": 50.0, "name": "Budeč", "no_alle": 2.0, "no_activity": 0.0, "no_reise": 0.0, "no_bi": 0.0, "no_gg": 2.0, "x": 50.192, "y": 14.246, "prazision": 1.0, "typ": "gemeinde", "noten": "hrad", "region0": "Böhmen", "region1": "Böhmen", "region2": "Mittelböhmen", "Region2shortcut": "MB", "region3": "Mittelböhmen" }, "geometry": { "type": "Point", "coordinates": [ 14.246, 50.192 ] } },
{ "type": "Feature", "properties": { "id": 51.0, "name": "Budyně nad Ohří", "no_alle": 8.0, "no_activity": 4.0, "no_reise": 4.0, "no_bi": 0.0, "no_gg": 0.0, "x": 50.404, "y": 14.126, "prazision": 1.0, "typ": "gemeinde", "noten": null, "region0": "Böhmen", "region1": "Böhmen", "region2": "Nordböhmen", "Region2shortcut": "NB", "region3": "Nordböhmen" }, "geometry": { "type": "Point", "coordinates": [ 14.126, 50.404 ] } },
{ "type": "Feature", "properties": { "id": 52.0, "name": "Čáslav", "no_alle": 5.0, "no_activity": 1.0, "no_reise": 1.0, "no_bi": 2.0, "no_gg": 1.0, "x": 49.91, "y": 15.389, "prazision": 1.0, "typ": "gemeinde", "noten": null, "region0": "Böhmen", "region1": "Böhmen", "region2": "Ostböhmen", "Region2shortcut": "OB", "region3": "Ostböhmen" }, "geometry": { "type": "Point", "coordinates": [ 15.389, 49.91 ] } },
{ "type": "Feature", "properties": { "id": 53.0, "name": "Čepihory", "no_alle": 1.0, "no_activity": 0.0, "no_reise": 0.0, "no_bi": 1.0, "no_gg": 0.0, "x": 50.489, "y": 13.621, "prazision": 1.0, "typ": "gemeinde", "noten": null, "region0": "Böhmen", "region1": "Böhmen", "region2": "Nordwestböhmen", "Region2shortcut": "NWB", "region3": "Nordwestböhmen" }, "geometry": { "type": "Point", "coordinates": [ 13.621, 50.489 ] } },
{ "type": "Feature", "properties": { "id": 54.0, "name": "Cerhonice", "no_alle": 1.0, "no_activity": 0.0, "no_reise": 0.0, "no_bi": 0.0, "no_gg": 1.0, "x": 49.418, "y": 14.056, "prazision": 1.0, "typ": "gemeinde", "noten": null, "region0": "Böhmen", "region1": "Böhmen", "region2": "Südböhmen", "Region2shortcut": "SB", "region3": "Südböhmen" }, "geometry": { "type": "Point", "coordinates": [ 14.056, 49.418 ] } },
{ "type": "Feature", "properties": { "id": 55.0, "name": "Cerhovice", "no_alle": 1.0, "no_activity": 0.0, "no_reise": 0.0, "no_bi": 0.0, "no_gg": 1.0, "x": 49.85, "y": 13.835, "prazision": 1.0, "typ": "gemeinde", "noten": null, "region0": "Böhmen", "region1": "Böhmen", "region2": "Mittelböhmen", "Region2shortcut": "MB", "region3": "Mittelböhmen" }, "geometry": { "type": "Point", "coordinates": [ 13.835, 49.85 ] } },
{ "type": "Feature", "properties": { "id": 56.0, "name": "Červený Kameň", "no_alle": 3.0, "no_activity": 1.0, "no_reise": 1.0, "no_bi": 1.0, "no_gg": 0.0, "x": 48.392, "y": 17.335, "prazision": 1.0, "typ": "gemeinde", "noten": null, "region0": "Ungarn", "region1": "Ungarn", "region2": "Westungarn", "Region2shortcut": "WU", "region3": "Westungarn" }, "geometry": { "type": "Point", "coordinates": [ 17.335, 48.392 ] } },
{ "type": "Feature", "properties": { "id": 57.0, "name": "České Budějovice", "no_alle": 5.0, "no_activity": 1.0, "no_reise": 1.0, "no_bi": 2.0, "no_gg": 1.0, "x": 48.974, "y": 14.474, "prazision": 1.0, "typ": "gemeinde", "noten": null, "region0": "Böhmen", "region1": "Böhmen", "region2": "Südböhmen", "Region2shortcut": "SB", "region3": "Südböhmen" }, "geometry": { "type": "Point", "coordinates": [ 14.474, 48.974 ] } },
{ "type": "Feature", "properties": { "id": 58.0, "name": "České Kopisty", "no_alle": 1.0, "no_activity": 0.0, "no_reise": 0.0, "no_bi": 0.0, "no_gg": 1.0, "x": 50.525, "y": 14.168, "prazision": 1.0, "typ": "gemeinde", "noten": null, "region0": "Böhmen", "region1": "Böhmen", "region2": "Nordböhmen", "Region2shortcut": "NB", "region3": "Nordböhmen" }, "geometry": { "type": "Point", "coordinates": [ 14.168, 50.525 ] } },
{ "type": "Feature", "properties": { "id": 59.0, "name": "Český Krumlov", "no_alle": 1.0, "no_activity": 0.0, "no_reise": 0.0, "no_bi": 1.0, "no_gg": 0.0, "x": 48.811, "y": 14.315, "prazision": 1.0, "typ": "gemeinde", "noten": null, "region0": "Böhmen", "region1": "Böhmen", "region2": "Südböhmen", "Region2shortcut": "SB", "region3": "Südböhmen" }, "geometry": { "type": "Point", "coordinates": [ 14.315, 48.811 ] } },
{ "type": "Feature", "properties": { "id": 60.0, "name": "Cetonice", "no_alle": 1.0, "no_activity": 0.0, "no_reise": 0.0, "no_bi": 0.0, "no_gg": 1.0, "x": 48.884, "y": 15.964, "prazision": 1.0, "typ": "gemeinde", "noten": null, "region0": "Mähren", "region1": "Mähren", "region2": "Znaimer Teil", "Region2shortcut": "ZT", "region3": "Znaimer Teil" }, "geometry": { "type": "Point", "coordinates": [ 15.964, 48.884 ] } },
{ "type": "Feature", "properties": { "id": 61.0, "name": "Cham", "no_alle": 4.0, "no_activity": 2.0, "no_reise": 2.0, "no_bi": 0.0, "no_gg": 0.0, "x": 49.218, "y": 12.666, "prazision": 1.0, "typ": "gemeinde", "noten": null, "region0": "Ausland", "region1": "Bayern", "region2": "Bayern", "Region2shortcut": "Ba", "region3": "Bayern" }, "geometry": { "type": "Point", "coordinates": [ 12.666, 49.218 ] } },
{ "type": "Feature", "properties": { "id": 62.0, "name": "Cheb", "no_alle": 6.0, "no_activity": 2.0, "no_reise": 2.0, "no_bi": 2.0, "no_gg": 0.0, "x": 50.071, "y": 12.38, "prazision": 1.0, "typ": "gemeinde", "noten": null, "region0": "Böhmen", "region1": "Egerland", "region2": "Egerland", "Region2shortcut": "Eg", "region3": "Egerland" }, "geometry": { "type": "Point", "coordinates": [ 12.38, 50.071 ] } },
{ "type": "Feature", "properties": { "id": 63.0, "name": "Chełmno", "no_alle": 6.0, "no_activity": 3.0, "no_reise": 3.0, "no_bi": 0.0, "no_gg": 0.0, "x": 53.348, "y": 18.424, "prazision": 1.0, "typ": "gemeinde", "noten": null, "region0": "Ausland", "region1": "Preussen", "region2": "Preussen", "Region2shortcut": "Pre", "region3": "Preussen" }, "geometry": { "type": "Point", "coordinates": [ 18.424, 53.348 ] } },
{ "type": "Feature", "properties": { "id": 64.0, "name": "Chomutov", "no_alle": 1.0, "no_activity": 0.0, "no_reise": 0.0, "no_bi": 1.0, "no_gg": 0.0, "x": 50.464, "y": 13.411, "prazision": 1.0, "typ": "gemeinde", "noten": null, "region0": "Böhmen", "region1": "Böhmen", "region2": "Nordwestböhmen", "Region2shortcut": "NWB", "region3": "Nordwestböhmen" }, "geometry": { "type": "Point", "coordinates": [ 13.411, 50.464 ] } },
{ "type": "Feature", "properties": { "id": 65.0, "name": "Chomýž", "no_alle": 1.0, "no_activity": 0.0, "no_reise": 0.0, "no_bi": 0.0, "no_gg": 1.0, "x": 50.11, "y": 17.648, "prazision": 1.0, "typ": "gemeinde", "noten": null, "region0": "Schlesien", "region1": "Schlesien", "region2": "Troppauer Teil", "Region2shortcut": "TT", "region3": "Troppauer Teil" }, "geometry": { "type": "Point", "coordinates": [ 17.648, 50.11 ] } },
{ "type": "Feature", "properties": { "id": 66.0, "name": "Chotěšov", "no_alle": 5.0, "no_activity": 0.0, "no_reise": 0.0, "no_bi": 5.0, "no_gg": 0.0, "x": 49.654, "y": 13.203, "prazision": 3.0, "typ": "gemeinde", "noten": null, "region0": "Böhmen", "region1": "Böhmen", "region2": "Südwestböhmen", "Region2shortcut": "SWB", "region3": "Südwestböhmen" }, "geometry": { "type": "Point", "coordinates": [ 13.203, 49.654 ] } },
{ "type": "Feature", "properties": { "id": 67.0, "name": "Chrudim", "no_alle": 1.0, "no_activity": 0.0, "no_reise": 0.0, "no_bi": 1.0, "no_gg": 0.0, "x": 49.951, "y": 15.796, "prazision": 1.0, "typ": "gemeinde", "noten": null, "region0": "Böhmen", "region1": "Böhmen", "region2": "Ostböhmen", "Region2shortcut": "OB", "region3": "Ostböhmen" }, "geometry": { "type": "Point", "coordinates": [ 15.796, 49.951 ] } },
{ "type": "Feature", "properties": { "id": 68.0, "name": "Cvilín", "no_alle": 1.0, "no_activity": 0.0, "no_reise": 0.0, "no_bi": 1.0, "no_gg": 0.0, "x": 50.082, "y": 17.721, "prazision": 1.0, "typ": "gemeinde", "noten": null, "region0": "Schlesien", "region1": "Schlesien", "region2": "Troppauer Teil", "Region2shortcut": "TT", "region3": "Troppauer Teil" }, "geometry": { "type": "Point", "coordinates": [ 17.721, 50.082 ] } },
{ "type": "Feature", "properties": { "id": 69.0, "name": "Dědice", "no_alle": 2.0, "no_activity": 0.0, "no_reise": 0.0, "no_bi": 2.0, "no_gg": 0.0, "x": 49.295, "y": 16.977, "prazision": 3.0, "typ": "gemeinde", "noten": null, "region0": "Mähren", "region1": "Mähren", "region2": "Olmützer Teil", "Region2shortcut": "OT", "region3": "Olmützer Teil" }, "geometry": { "type": "Point", "coordinates": [ 16.977, 49.295 ] } },
{ "type": "Feature", "properties": { "id": 70.0, "name": "Deutschlandsberg", "no_alle": 1.0, "no_activity": 0.0, "no_reise": 0.0, "no_bi": 0.0, "no_gg": 1.0, "x": null, "y": null, "prazision": 1.0, "typ": "gemeinde", "noten": null, "region0": "Steiermark", "region1": "Steiermark", "region2": "Mittelsteiermark", "Region2shortcut": "MS", "region3": "Mittelsteiermark" }, "geometry": null },
{ "type": "Feature", "properties": { "id": 71.0, "name": "Diváky", "no_alle": 2.0, "no_activity": 0.0, "no_reise": 0.0, "no_bi": 0.0, "no_gg": 2.0, "x": 48.989, "y": 16.79, "prazision": 1.0, "typ": "gemeinde", "noten": null, "region0": "Mähren", "region1": "Mähren", "region2": "Brünner Teil", "Region2shortcut": "BT", "region3": "Brünner Teil" }, "geometry": { "type": "Point", "coordinates": [ 16.79, 48.989 ] } },
{ "type": "Feature", "properties": { "id": 72.0, "name": "Dobi", "no_alle": 1.0, "no_activity": 0.0, "no_reise": 0.0, "no_bi": 0.0, "no_gg": 1.0, "x": 46.948, "y": 15.374, "prazision": 1.0, "typ": "gemeinde", "noten": null, "region0": "Steiermark", "region1": "Steiermark", "region2": "Mittelsteiermark", "Region2shortcut": "MS", "region3": "Mittelsteiermark" }, "geometry": { "type": "Point", "coordinates": [ 15.374, 46.948 ] } },
{ "type": "Feature", "properties": { "id": 73.0, "name": "Dobra (bei St. Peter in der Au-Markt )", "no_alle": 2.0, "no_activity": 0.0, "no_reise": 0.0, "no_bi": 2.0, "no_gg": 0.0, "x": 48.046, "y": 14.625, "prazision": 1.0, "typ": "gemeinde", "noten": null, "region0": "Oberösterreich", "region1": "Oberösterreich", "region2": "Oberösterreich", "Region2shortcut": "OÖ", "region3": "Oberösterreich" }, "geometry": { "type": "Point", "coordinates": [ 14.625, 48.046 ] } },
{ "type": "Feature", "properties": { "id": 74.0, "name": "Dobrava pri Škocjanu", "no_alle": 3.0, "no_activity": 0.0, "no_reise": 0.0, "no_bi": 1.0, "no_gg": 2.0, "x": 45.875, "y": 15.327, "prazision": 1.0, "typ": "gemeinde", "noten": null, "region0": "Krain + Aquileia", "region1": "Krain", "region2": "Krain", "Region2shortcut": "Kr", "region3": "Krain" }, "geometry": { "type": "Point", "coordinates": [ 15.327, 45.875 ] } },
{ "type": "Feature", "properties": { "id": 75.0, "name": "Dobrenje", "no_alle": 1.0, "no_activity": 0.0, "no_reise": 0.0, "no_bi": 0.0, "no_gg": 1.0, "x": 46.609, "y": 15.662, "prazision": 1.0, "typ": "gemeinde", "noten": null, "region0": "Steiermark", "region1": "Steiermark", "region2": "Südsteiermark", "Region2shortcut": "SS", "region3": "Südsteiermark" }, "geometry": { "type": "Point", "coordinates": [ 15.662, 46.609 ] } },
{ "type": "Feature", "properties": { "id": 76.0, "name": "Dobříš", "no_alle": 2.0, "no_activity": 1.0, "no_reise": 1.0, "no_bi": 0.0, "no_gg": 0.0, "x": 49.783, "y": 14.175, "prazision": 1.0, "typ": "gemeinde", "noten": null, "region0": "Böhmen", "region1": "Böhmen", "region2": "Mittelböhmen", "Region2shortcut": "MB", "region3": "Mittelböhmen" }, "geometry": { "type": "Point", "coordinates": [ 14.175, 49.783 ] } },
{ "type": "Feature", "properties": { "id": 77.0, "name": "Doksany", "no_alle": 4.0, "no_activity": 0.0, "no_reise": 0.0, "no_bi": 4.0, "no_gg": 0.0, "x": 50.455, "y": 14.16, "prazision": 1.0, "typ": "gemeinde", "noten": null, "region0": "Böhmen", "region1": "Böhmen", "region2": "Nordböhmen", "Region2shortcut": "NB", "region3": "Nordböhmen" }, "geometry": { "type": "Point", "coordinates": [ 14.16, 50.455 ] } },
{ "type": "Feature", "properties": { "id": 78.0, "name": "Doksy", "no_alle": 1.0, "no_activity": 0.0, "no_reise": 0.0, "no_bi": 1.0, "no_gg": 0.0, "x": 50.565, "y": 14.656, "prazision": 1.0, "typ": "gemeinde", "noten": null, "region0": "Böhmen", "region1": "Böhmen", "region2": "Nordböhmen", "Region2shortcut": "NB", "region3": "Nordböhmen" }, "geometry": { "type": "Point", "coordinates": [ 14.656, 50.565 ] } },
{ "type": "Feature", "properties": { "id": 79.0, "name": "Dolní Bukovsko", "no_alle": 1.0, "no_activity": 0.0, "no_reise": 0.0, "no_bi": 0.0, "no_gg": 1.0, "x": 49.171, "y": 14.58, "prazision": 1.0, "typ": "gemeinde", "noten": null, "region0": "Böhmen", "region1": "Böhmen", "region2": "Südböhmen", "Region2shortcut": "SB", "region3": "Südböhmen" }, "geometry": { "type": "Point", "coordinates": [ 14.58, 49.171 ] } },
{ "type": "Feature", "properties": { "id": 80.0, "name": "Dolní Černošice", "no_alle": 1.0, "no_activity": 0.0, "no_reise": 0.0, "no_bi": 0.0, "no_gg": 1.0, "x": 49.961, "y": 14.331, "prazision": 1.0, "typ": "gemeinde", "noten": null, "region0": "Böhmen", "region1": "Böhmen", "region2": "Mittelböhmen", "Region2shortcut": "MB", "region3": "Mittelböhmen" }, "geometry": { "type": "Point", "coordinates": [ 14.331, 49.961 ] } },
{ "type": "Feature", "properties": { "id": 81.0, "name": "Dolní Vltavice", "no_alle": 1.0, "no_activity": 0.0, "no_reise": 0.0, "no_bi": 0.0, "no_gg": 1.0, "x": 48.697, "y": 14.076, "prazision": 1.0, "typ": "gemeinde", "noten": null, "region0": "Böhmen", "region1": "Böhmen", "region2": "Südböhmen", "Region2shortcut": "SB", "region3": "Südböhmen" }, "geometry": { "type": "Point", "coordinates": [ 14.076, 48.697 ] } },
{ "type": "Feature", "properties": { "id": 82.0, "name": "Domažlice", "no_alle": 6.0, "no_activity": 2.0, "no_reise": 2.0, "no_bi": 1.0, "no_gg": 1.0, "x": 49.44, "y": 12.93, "prazision": 1.0, "typ": "gemeinde", "noten": null, "region0": "Böhmen", "region1": "Böhmen", "region2": "Südwestböhmen", "Region2shortcut": "SWB", "region3": "Südwestböhmen" }, "geometry": { "type": "Point", "coordinates": [ 12.93, 49.44 ] } },
{ "type": "Feature", "properties": { "id": 83.0, "name": "Doubravník", "no_alle": 2.0, "no_activity": 0.0, "no_reise": 0.0, "no_bi": 2.0, "no_gg": 0.0, "x": 49.424, "y": 16.353, "prazision": 1.0, "typ": "gemeinde", "noten": null, "region0": "Mähren", "region1": "Mähren", "region2": "Brünner Teil", "Region2shortcut": "BT", "region3": "Brünner Teil" }, "geometry": { "type": "Point", "coordinates": [ 16.353, 49.424 ] } },
{ "type": "Feature", "properties": { "id": 84.0, "name": "Doudleby", "no_alle": 1.0, "no_activity": 0.0, "no_reise": 0.0, "no_bi": 0.0, "no_gg": 1.0, "x": 48.894, "y": 14.5, "prazision": 1.0, "typ": "gemeinde", "noten": null, "region0": "Böhmen", "region1": "Böhmen", "region2": "Südböhmen", "Region2shortcut": "SB", "region3": "Südböhmen" }, "geometry": { "type": "Point", "coordinates": [ 14.5, 48.894 ] } },
{ "type": "Feature", "properties": { "id": 85.0, "name": "Dranek (Treun heute bei Videm při Ptuju)", "no_alle": 1.0, "no_activity": 0.0, "no_reise": 0.0, "no_bi": 1.0, "no_gg": 0.0, "x": 46.37, "y": 15.901, "prazision": 1.0, "typ": "gemeinde", "noten": null, "region0": "Steiermark", "region1": "Steiermark", "region2": "Südsteiermark", "Region2shortcut": "SS", "region3": "Südsteiermark" }, "geometry": { "type": "Point", "coordinates": [ 15.901, 46.37 ] } },
{ "type": "Feature", "properties": { "id": 86.0, "name": "Dravograd", "no_alle": 1.0, "no_activity": 0.0, "no_reise": 0.0, "no_bi": 0.0, "no_gg": 1.0, "x": 46.589, "y": 15.024, "prazision": 1.0, "typ": "gemeinde", "noten": null, "region0": "Kärnten", "region1": "Kärnten", "region2": "Ostkärnten", "Region2shortcut": "OK", "region3": "Ostkärnten" }, "geometry": { "type": "Point", "coordinates": [ 15.024, 46.589 ] } },
{ "type": "Feature", "properties": { "id": 87.0, "name": "Dřenice", "no_alle": 1.0, "no_activity": 0.0, "no_reise": 0.0, "no_bi": 0.0, "no_gg": 1.0, "x": 49.983, "y": 15.745, "prazision": 1.0, "typ": "gemeinde", "noten": null, "region0": "Böhmen", "region1": "Böhmen", "region2": "Ostböhmen", "Region2shortcut": "OB", "region3": "Ostböhmen" }, "geometry": { "type": "Point", "coordinates": [ 15.745, 49.983 ] } },
{ "type": "Feature", "properties": { "id": 88.0, "name": "Drnholec", "no_alle": 1.0, "no_activity": 0.0, "no_reise": 0.0, "no_bi": 1.0, "no_gg": 0.0, "x": 48.857, "y": 16.486, "prazision": 1.0, "typ": "gemeinde", "noten": null, "region0": "Mähren", "region1": "Mähren", "region2": "Znaimer Teil", "Region2shortcut": "ZT", "region3": "Znaimer Teil" }, "geometry": { "type": "Point", "coordinates": [ 16.486, 48.857 ] } },
{ "type": "Feature", "properties": { "id": 89.0, "name": "Drosendorf", "no_alle": 5.0, "no_activity": 2.0, "no_reise": 2.0, "no_bi": 0.0, "no_gg": 1.0, "x": 48.866, "y": 15.622, "prazision": 1.0, "typ": "gemeinde", "noten": null, "region0": "Niederösterreich", "region1": "Niederösterreich", "region2": "Nordwestniederösterreich", "Region2shortcut": "NWNÖ", "region3": "Nordwestniederösterreich" }, "geometry": { "type": "Point", "coordinates": [ 15.622, 48.866 ] } },
{ "type": "Feature", "properties": { "id": 90.0, "name": "Dürnstein", "no_alle": 2.0, "no_activity": 0.0, "no_reise": 0.0, "no_bi": 2.0, "no_gg": 0.0, "x": 48.407, "y": 15.525, "prazision": 1.0, "typ": "gemeinde", "noten": null, "region0": "Niederösterreich", "region1": "Niederösterreich", "region2": "Nordwestniederösterreich", "Region2shortcut": "NWNÖ", "region3": "Nordwestniederösterreich" }, "geometry": { "type": "Point", "coordinates": [ 15.525, 48.407 ] } },
{ "type": "Feature", "properties": { "id": 91.0, "name": "Eckartsau", "no_alle": 1.0, "no_activity": 0.0, "no_reise": 0.0, "no_bi": 1.0, "no_gg": 0.0, "x": 48.156, "y": 16.804, "prazision": 1.0, "typ": "gemeinde", "noten": null, "region0": "Niederösterreich", "region1": "Niederösterreich", "region2": "Nordostniederösterreich", "Region2shortcut": "NONÖ", "region3": "Nordostniederösterreich" }, "geometry": { "type": "Point", "coordinates": [ 16.804, 48.156 ] } },
{ "type": "Feature", "properties": { "id": 92.0, "name": "Eferding", "no_alle": 2.0, "no_activity": 0.0, "no_reise": 0.0, "no_bi": 0.0, "no_gg": 2.0, "x": 48.308, "y": 14.02, "prazision": 1.0, "typ": "gemeinde", "noten": null, "region0": "Oberösterreich", "region1": "Oberösterreich", "region2": "Oberösterreich", "Region2shortcut": "OÖ", "region3": "Oberösterreich" }, "geometry": { "type": "Point", "coordinates": [ 14.02, 48.308 ] } },
{ "type": "Feature", "properties": { "id": 93.0, "name": "Eger", "no_alle": 1.0, "no_activity": 0.0, "no_reise": 0.0, "no_bi": 1.0, "no_gg": 0.0, "x": 47.903, "y": 20.373, "prazision": 1.0, "typ": "gemeinde", "noten": null, "region0": "Ungarn", "region1": "Ungarn", "region2": "Westungarn", "Region2shortcut": "WU", "region3": "Westungarn" }, "geometry": { "type": "Point", "coordinates": [ 20.373, 47.903 ] } },
{ "type": "Feature", "properties": { "id": 94.0, "name": "Egerland", "no_alle": 1.0, "no_activity": 0.0, "no_reise": 0.0, "no_bi": 1.0, "no_gg": 0.0, "x": null, "y": null, "prazision": 2.0, "typ": "region", "noten": null, "region0": "Böhmen", "region1": "Egerland", "region2": "Egerland", "Region2shortcut": "Eg", "region3": "Egerland" }, "geometry": null },
{ "type": "Feature", "properties": { "id": 95.0, "name": "Eggenburg", "no_alle": 4.0, "no_activity": 1.0, "no_reise": 1.0, "no_bi": 1.0, "no_gg": 1.0, "x": 48.639, "y": 15.819, "prazision": 1.0, "typ": "gemeinde", "noten": null, "region0": "Niederösterreich", "region1": "Niederösterreich", "region2": "Nordostniederösterreich", "Region2shortcut": "NONÖ", "region3": "Nordostniederösterreich" }, "geometry": { "type": "Point", "coordinates": [ 15.819, 48.639 ] } },
{ "type": "Feature", "properties": { "id": 96.0, "name": "Eggendorf am Wagram", "no_alle": 1.0, "no_activity": 0.0, "no_reise": 0.0, "no_bi": 0.0, "no_gg": 1.0, "x": 48.403, "y": 16.04, "prazision": 1.0, "typ": "gemeinde", "noten": null, "region0": "Niederösterreich", "region1": "Niederösterreich", "region2": "Nordostniederösterreich", "Region2shortcut": "NONÖ", "region3": "Nordostniederösterreich" }, "geometry": { "type": "Point", "coordinates": [ 16.04, 48.403 ] } },
{ "type": "Feature", "properties": { "id": 97.0, "name": "Eggendorf bei Wiener Neustadt", "no_alle": 1.0, "no_activity": 0.0, "no_reise": 0.0, "no_bi": 0.0, "no_gg": 1.0, "x": 47.858, "y": 16.322, "prazision": 1.0, "typ": "gemeinde", "noten": null, "region0": "Niederösterreich", "region1": "Niederösterreich", "region2": "Südostniederösterreich", "Region2shortcut": "SONÖ", "region3": "Südostniederösterreich" }, "geometry": { "type": "Point", "coordinates": [ 16.322, 47.858 ] } },
{ "type": "Feature", "properties": { "id": 98.0, "name": "ein Wald Bor zwischen Kolín und Čáslav", "no_alle": 2.0, "no_activity": 0.0, "no_reise": 0.0, "no_bi": 0.0, "no_gg": 2.0, "x": 49.996, "y": 15.31, "prazision": 2.0, "typ": "gemeinde", "noten": "les", "region0": "Böhmen", "region1": "Böhmen", "region2": "Ostböhmen", "Region2shortcut": "OB", "region3": "Ostböhmen" }, "geometry": { "type": "Point", "coordinates": [ 15.31, 49.996 ] } },
{ "type": "Feature", "properties": { "id": 99.0, "name": "Eisdorf", "no_alle": 1.0, "no_activity": 0.0, "no_reise": 0.0, "no_bi": 1.0, "no_gg": 0.0, "x": 51.762, "y": 10.176, "prazision": 1.0, "typ": "gemeinde", "noten": "untergegangenes Dorf", "region0": "Niederösterreich", "region1": "Niederösterreich", "region2": "Nordostniederösterreich", "Region2shortcut": "NONÖ", "region3": "Nordostniederösterreich" }, "geometry": { "type": "Point", "coordinates": [ 10.176, 51.762 ] } },
{ "type": "Feature", "properties": { "id": 100.0, "name": "Eisenreichdornach", "no_alle": 1.0, "no_activity": 0.0, "no_reise": 0.0, "no_bi": 0.0, "no_gg": 1.0, "x": 48.131, "y": 14.891, "prazision": 3.0, "typ": "gemeinde", "noten": null, "region0": "Niederösterreich", "region1": "Niederösterreich", "region2": "Südwestniederösterreich", "Region2shortcut": "SWNÖ", "region3": "Südwestniederösterreich" }, "geometry": { "type": "Point", "coordinates": [ 14.891, 48.131 ] } },
{ "type": "Feature", "properties": { "id": 101.0, "name": "Elbląg", "no_alle": 4.0, "no_activity": 2.0, "no_reise": 2.0, "no_bi": 0.0, "no_gg": 0.0, "x": 54.152, "y": 19.409, "prazision": 1.0, "typ": "gemeinde", "noten": null, "region0": "Ausland", "region1": "Preussen", "region2": "Preussen", "Region2shortcut": "Pre", "region3": "Preussen" }, "geometry": { "type": "Point", "coordinates": [ 19.409, 54.152 ] } },
{ "type": "Feature", "properties": { "id": 102.0, "name": "Emmersdorf an der Donau", "no_alle": 3.0, "no_activity": 0.0, "no_reise": 0.0, "no_bi": 1.0, "no_gg": 2.0, "x": 48.253, "y": 15.324, "prazision": 1.0, "typ": "gemeinde", "noten": null, "region0": "Niederösterreich", "region1": "Niederösterreich", "region2": "Nordwestniederösterreich", "Region2shortcut": "NWNÖ", "region3": "Nordwestniederösterreich" }, "geometry": { "type": "Point", "coordinates": [ 15.324, 48.253 ] } },
{ "type": "Feature", "properties": { "id": 103.0, "name": "Enns", "no_alle": 9.0, "no_activity": 2.0, "no_reise": 2.0, "no_bi": 2.0, "no_gg": 3.0, "x": 48.214, "y": 14.479, "prazision": 1.0, "typ": "gemeinde", "noten": null, "region0": "Oberösterreich", "region1": "Oberösterreich", "region2": "Oberösterreich", "Region2shortcut": "OÖ", "region3": "Oberösterreich" }, "geometry": { "type": "Point", "coordinates": [ 14.479, 48.214 ] } },
{ "type": "Feature", "properties": { "id": 104.0, "name": "Erla", "no_alle": 2.0, "no_activity": 0.0, "no_reise": 0.0, "no_bi": 2.0, "no_gg": 0.0, "x": 48.199, "y": 14.57, "prazision": 3.0, "typ": "gemeinde", "noten": null, "region0": "Oberösterreich", "region1": "Oberösterreich", "region2": "Oberösterreich", "Region2shortcut": "OÖ", "region3": "Oberösterreich" }, "geometry": { "type": "Point", "coordinates": [ 14.57, 48.199 ] } },
{ "type": "Feature", "properties": { "id": 105.0, "name": "Ernstbrunn", "no_alle": 2.0, "no_activity": 0.0, "no_reise": 0.0, "no_bi": 1.0, "no_gg": 1.0, "x": 48.526, "y": 16.36, "prazision": 1.0, "typ": "gemeinde", "noten": null, "region0": "Niederösterreich", "region1": "Niederösterreich", "region2": "Nordostniederösterreich", "Region2shortcut": "NONÖ", "region3": "Nordostniederösterreich" }, "geometry": { "type": "Point", "coordinates": [ 16.36, 48.526 ] } },
{ "type": "Feature", "properties": { "id": 106.0, "name": "Falkenberg", "no_alle": 3.0, "no_activity": 0.0, "no_reise": 0.0, "no_bi": 3.0, "no_gg": 0.0, "x": 48.498, "y": 15.732, "prazision": 1.0, "typ": "gemeinde", "noten": null, "region0": "Niederösterreich", "region1": "Niederösterreich", "region2": "Nordostniederösterreich", "Region2shortcut": "NONÖ", "region3": "Nordostniederösterreich" }, "geometry": { "type": "Point", "coordinates": [ 15.732, 48.498 ] } },
{ "type": "Feature", "properties": { "id": 107.0, "name": "Falkenstein", "no_alle": 1.0, "no_activity": 0.0, "no_reise": 0.0, "no_bi": 0.0, "no_gg": 1.0, "x": 48.717, "y": 16.586, "prazision": 1.0, "typ": "gemeinde", "noten": null, "region0": "Niederösterreich", "region1": "Niederösterreich", "region2": "Nordostniederösterreich", "Region2shortcut": "NONÖ", "region3": "Nordostniederösterreich" }, "geometry": { "type": "Point", "coordinates": [ 16.586, 48.717 ] } },
{ "type": "Feature", "properties": { "id": 108.0, "name": "Falkenstein an der Ranna", "no_alle": 1.0, "no_activity": 0.0, "no_reise": 0.0, "no_bi": 1.0, "no_gg": 0.0, "x": 48.494, "y": 13.783, "prazision": 1.0, "typ": "gemeinde", "noten": null, "region0": "Ausland", "region1": "Bayern", "region2": "Bayern", "Region2shortcut": "Ba", "region3": "Bayern" }, "geometry": { "type": "Point", "coordinates": [ 13.783, 48.494 ] } },
{ "type": "Feature", "properties": { "id": 109.0, "name": "Feistritz bei Prank", "no_alle": 1.0, "no_activity": 0.0, "no_reise": 0.0, "no_bi": 0.0, "no_gg": 1.0, "x": 47.279, "y": 14.863, "prazision": 2.0, "typ": "gemeinde", "noten": null, "region0": "Steiermark", "region1": "Steiermark", "region2": "Nordsteiermark", "Region2shortcut": "NS", "region3": "Nordsteiermark" }, "geometry": { "type": "Point", "coordinates": [ 14.863, 47.279 ] } },
{ "type": "Feature", "properties": { "id": 110.0, "name": "Frankenreith", "no_alle": 1.0, "no_activity": 0.0, "no_reise": 0.0, "no_bi": 0.0, "no_gg": 1.0, "x": 48.684, "y": 15.526, "prazision": 1.0, "typ": "gemeinde", "noten": null, "region0": "Niederösterreich", "region1": "Niederösterreich", "region2": "Nordwestniederösterreich", "Region2shortcut": "NWNÖ", "region3": "Nordwestniederösterreich" }, "geometry": { "type": "Point", "coordinates": [ 15.526, 48.684 ] } },
{ "type": "Feature", "properties": { "id": 111.0, "name": "Freising", "no_alle": 33.0, "no_activity": 0.0, "no_reise": 0.0, "no_bi": 33.0, "no_gg": 0.0, "x": 48.399, "y": 11.746, "prazision": 3.0, "typ": "gemeinde", "noten": null, "region0": "Ausland", "region1": "Bayern", "region2": "Bayern", "Region2shortcut": "Ba", "region3": "Bayern" }, "geometry": { "type": "Point", "coordinates": [ 11.746, 48.399 ] } },
{ "type": "Feature", "properties": { "id": 112.0, "name": "Freistadt", "no_alle": 18.0, "no_activity": 9.0, "no_reise": 9.0, "no_bi": 0.0, "no_gg": 0.0, "x": 48.517, "y": 14.517, "prazision": 3.0, "typ": "gemeinde", "noten": null, "region0": "Oberösterreich", "region1": "Oberösterreich", "region2": "Oberösterreich", "Region2shortcut": "OÖ", "region3": "Oberösterreich" }, "geometry": { "type": "Point", "coordinates": [ 14.517, 48.517 ] } },
{ "type": "Feature", "properties": { "id": 113.0, "name": "Friesach", "no_alle": 11.0, "no_activity": 4.0, "no_reise": 4.0, "no_bi": 2.0, "no_gg": 1.0, "x": 46.984, "y": 14.326, "prazision": 1.0, "typ": "gemeinde", "noten": null, "region0": "Kärnten", "region1": "Kärnten", "region2": "Ostkärnten", "Region2shortcut": "OK", "region3": "Ostkärnten" }, "geometry": { "type": "Point", "coordinates": [ 14.326, 46.984 ] } },
{ "type": "Feature", "properties": { "id": 114.0, "name": "Frýdlant", "no_alle": 2.0, "no_activity": 0.0, "no_reise": 0.0, "no_bi": 1.0, "no_gg": 1.0, "x": 50.921, "y": 15.08, "prazision": 1.0, "typ": "gemeinde", "noten": null, "region0": "Böhmen", "region1": "Böhmen", "region2": "Nordböhmen", "Region2shortcut": "NB", "region3": "Nordböhmen" }, "geometry": { "type": "Point", "coordinates": [ 15.08, 50.921 ] } },
{ "type": "Feature", "properties": { "id": 115.0, "name": "Fulštejn", "no_alle": 3.0, "no_activity": 0.0, "no_reise": 0.0, "no_bi": 2.0, "no_gg": 1.0, "x": 50.243, "y": 17.714, "prazision": 3.0, "typ": "gemeinde", "noten": null, "region0": "Schlesien", "region1": "Schlesien", "region2": "Troppauer Teil", "Region2shortcut": "TT", "region3": "Troppauer Teil" }, "geometry": { "type": "Point", "coordinates": [ 17.714, 50.243 ] } },
{ "type": "Feature", "properties": { "id": 116.0, "name": "Fürstenfeld", "no_alle": 1.0, "no_activity": 0.0, "no_reise": 0.0, "no_bi": 1.0, "no_gg": 0.0, "x": 47.05, "y": 16.071, "prazision": 1.0, "typ": "gemeinde", "noten": null, "region0": "Steiermark", "region1": "Steiermark", "region2": "Mittelsteiermark", "Region2shortcut": "MS", "region3": "Mittelsteiermark" }, "geometry": { "type": "Point", "coordinates": [ 16.071, 47.05 ] } },
{ "type": "Feature", "properties": { "id": 117.0, "name": "Gaflenz", "no_alle": 1.0, "no_activity": 0.0, "no_reise": 0.0, "no_bi": 0.0, "no_gg": 1.0, "x": 47.895, "y": 14.726, "prazision": 1.0, "typ": "gemeinde", "noten": null, "region0": "Oberösterreich", "region1": "Oberösterreich", "region2": "Oberösterreich", "Region2shortcut": "OÖ", "region3": "Oberösterreich" }, "geometry": { "type": "Point", "coordinates": [ 14.726, 47.895 ] } },
{ "type": "Feature", "properties": { "id": 118.0, "name": "Gaming", "no_alle": 4.0, "no_activity": 2.0, "no_reise": 2.0, "no_bi": 0.0, "no_gg": 0.0, "x": 47.929, "y": 15.088, "prazision": 1.0, "typ": "gemeinde", "noten": null, "region0": "Niederösterreich", "region1": "Niederösterreich", "region2": "Südwestniederösterreich", "Region2shortcut": "SWNÖ", "region3": "Südwestniederösterreich" }, "geometry": { "type": "Point", "coordinates": [ 15.088, 47.929 ] } },
{ "type": "Feature", "properties": { "id": 119.0, "name": "Gars am Kamp", "no_alle": 2.0, "no_activity": 0.0, "no_reise": 0.0, "no_bi": 1.0, "no_gg": 1.0, "x": 48.599, "y": 15.662, "prazision": 1.0, "typ": "gemeinde", "noten": null, "region0": "Niederösterreich", "region1": "Niederösterreich", "region2": "Nordwestniederösterreich", "Region2shortcut": "NWNÖ", "region3": "Nordwestniederösterreich" }, "geometry": { "type": "Point", "coordinates": [ 15.662, 48.599 ] } },
{ "type": "Feature", "properties": { "id": 120.0, "name": "Garsten", "no_alle": 5.0, "no_activity": 0.0, "no_reise": 0.0, "no_bi": 5.0, "no_gg": 0.0, "x": 48.022, "y": 14.409, "prazision": 1.0, "typ": "gemeinde", "noten": null, "region0": "Oberösterreich", "region1": "Oberösterreich", "region2": "Oberösterreich", "Region2shortcut": "OÖ", "region3": "Oberösterreich" }, "geometry": { "type": "Point", "coordinates": [ 14.409, 48.022 ] } },
{ "type": "Feature", "properties": { "id": 121.0, "name": "Geras", "no_alle": 3.0, "no_activity": 0.0, "no_reise": 0.0, "no_bi": 3.0, "no_gg": 0.0, "x": 48.781, "y": 15.665, "prazision": 1.0, "typ": "gemeinde", "noten": null, "region0": "Niederösterreich", "region1": "Niederösterreich", "region2": "Nordwestniederösterreich", "Region2shortcut": "NWNÖ", "region3": "Nordwestniederösterreich" }, "geometry": { "type": "Point", "coordinates": [ 15.665, 48.781 ] } },
{ "type": "Feature", "properties": { "id": 122.0, "name": "Gerasdorf", "no_alle": 1.0, "no_activity": 0.0, "no_reise": 0.0, "no_bi": 0.0, "no_gg": 1.0, "x": 48.296, "y": 16.469, "prazision": 1.0, "typ": "gemeinde", "noten": null, "region0": "Niederösterreich", "region1": "Niederösterreich", "region2": "Nordostniederösterreich", "Region2shortcut": "NONÖ", "region3": "Nordostniederösterreich" }, "geometry": { "type": "Point", "coordinates": [ 16.469, 48.296 ] } },
{ "type": "Feature", "properties": { "id": 123.0, "name": "Glanz an der Weinstraße", "no_alle": 1.0, "no_activity": 0.0, "no_reise": 0.0, "no_bi": 0.0, "no_gg": 1.0, "x": 46.662, "y": 15.537, "prazision": 1.0, "typ": "gemeinde", "noten": null, "region0": "Steiermark", "region1": "Steiermark", "region2": "Südsteiermark", "Region2shortcut": "SS", "region3": "Südsteiermark" }, "geometry": { "type": "Point", "coordinates": [ 15.537, 46.662 ] } },
{ "type": "Feature", "properties": { "id": 124.0, "name": "Glaubitsch", "no_alle": 2.0, "no_activity": 0.0, "no_reise": 0.0, "no_bi": 1.0, "no_gg": 1.0, "x": 48.653, "y": 16.38, "prazision": 1.0, "typ": "gemeinde", "noten": null, "region0": "Niederösterreich", "region1": "Niederösterreich", "region2": "Nordostniederösterreich", "Region2shortcut": "NONÖ", "region3": "Nordostniederösterreich" }, "geometry": { "type": "Point", "coordinates": [ 16.38, 48.653 ] } },
{ "type": "Feature", "properties": { "id": 125.0, "name": "Gleink", "no_alle": 4.0, "no_activity": 0.0, "no_reise": 0.0, "no_bi": 4.0, "no_gg": 0.0, "x": 48.067, "y": 14.417, "prazision": 1.0, "typ": "gemeinde", "noten": null, "region0": "Oberösterreich", "region1": "Oberösterreich", "region2": "Oberösterreich", "Region2shortcut": "OÖ", "region3": "Oberösterreich" }, "geometry": { "type": "Point", "coordinates": [ 14.417, 48.067 ] } },
{ "type": "Feature", "properties": { "id": 126.0, "name": "Głubczyce", "no_alle": 9.0, "no_activity": 2.0, "no_reise": 2.0, "no_bi": 4.0, "no_gg": 1.0, "x": 50.201, "y": 17.829, "prazision": 1.0, "typ": "gemeinde", "noten": null, "region0": "Schlesien", "region1": "Schlesien", "region2": "Troppauer Teil", "Region2shortcut": "TT", "region3": "Troppauer Teil" }, "geometry": { "type": "Point", "coordinates": [ 17.829, 50.201 ] } },
{ "type": "Feature", "properties": { "id": 127.0, "name": "Gornji Grad", "no_alle": 1.0, "no_activity": 0.0, "no_reise": 0.0, "no_bi": 1.0, "no_gg": 0.0, "x": 46.289, "y": 14.801, "prazision": 1.0, "typ": "gemeinde", "noten": null, "region0": "Krain + Aquileia", "region1": "Patriarchat Aquileia", "region2": "Patriarchat Aquileia", "Region2shortcut": "PA", "region3": "Patriarchat Aquileia" }, "geometry": { "type": "Point", "coordinates": [ 14.801, 46.289 ] } },
{ "type": "Feature", "properties": { "id": 128.0, "name": "Gosau", "no_alle": 1.0, "no_activity": 0.0, "no_reise": 0.0, "no_bi": 0.0, "no_gg": 1.0, "x": 47.585, "y": 13.536, "prazision": 1.0, "typ": "gemeinde", "noten": null, "region0": "Oberösterreich", "region1": "Oberösterreich", "region2": "Oberösterreich", "Region2shortcut": "OÖ", "region3": "Oberösterreich" }, "geometry": { "type": "Point", "coordinates": [ 13.536, 47.585 ] } },
{ "type": "Feature", "properties": { "id": 129.0, "name": "Gössendorf", "no_alle": 2.0, "no_activity": 0.0, "no_reise": 0.0, "no_bi": 0.0, "no_gg": 2.0, "x": 46.998, "y": 15.486, "prazision": 1.0, "typ": "gemeinde", "noten": null, "region0": "Steiermark", "region1": "Steiermark", "region2": "Mittelsteiermark", "Region2shortcut": "MS", "region3": "Mittelsteiermark" }, "geometry": { "type": "Point", "coordinates": [ 15.486, 46.998 ] } },
{ "type": "Feature", "properties": { "id": 130.0, "name": "Göttweig", "no_alle": 4.0, "no_activity": 0.0, "no_reise": 0.0, "no_bi": 4.0, "no_gg": 0.0, "x": 48.368, "y": 15.613, "prazision": 1.0, "typ": "gemeinde", "noten": null, "region0": "Niederösterreich", "region1": "Niederösterreich", "region2": "Südwestniederösterreich", "Region2shortcut": "SWNÖ", "region3": "Südwestniederösterreich" }, "geometry": { "type": "Point", "coordinates": [ 15.613, 48.368 ] } },
{ "type": "Feature", "properties": { "id": 131.0, "name": "Gramastetten", "no_alle": 2.0, "no_activity": 0.0, "no_reise": 0.0, "no_bi": 0.0, "no_gg": 2.0, "x": 48.379, "y": 14.192, "prazision": 1.0, "typ": "gemeinde", "noten": null, "region0": "Oberösterreich", "region1": "Oberösterreich", "region2": "Oberösterreich", "Region2shortcut": "OÖ", "region3": "Oberösterreich" }, "geometry": { "type": "Point", "coordinates": [ 14.192, 48.379 ] } },
{ "type": "Feature", "properties": { "id": 132.0, "name": "Graslupp", "no_alle": 0.0, "no_activity": 0.0, "no_reise": 0.0, "no_bi": 0.0, "no_gg": 0.0, "x": 47.071, "y": 14.381, "prazision": 1.0, "typ": "gemeinde", "noten": null, "region0": "Steiermark", "region1": "Steiermark", "region2": "Nordsteiermark", "Region2shortcut": "NS", "region3": "Nordsteiermark" }, "geometry": { "type": "Point", "coordinates": [ 14.381, 47.071 ] } },
{ "type": "Feature", "properties": { "id": 133.0, "name": "Gratwein", "no_alle": 1.0, "no_activity": 0.0, "no_reise": 0.0, "no_bi": 1.0, "no_gg": 0.0, "x": 47.129, "y": 15.318, "prazision": 1.0, "typ": "gemeinde", "noten": null, "region0": "Steiermark", "region1": "Steiermark", "region2": "Mittelsteiermark", "Region2shortcut": "MS", "region3": "Mittelsteiermark" }, "geometry": { "type": "Point", "coordinates": [ 15.318, 47.129 ] } },
{ "type": "Feature", "properties": { "id": 134.0, "name": "Graz", "no_alle": 82.0, "no_activity": 39.0, "no_reise": 40.0, "no_bi": 2.0, "no_gg": 1.0, "x": 47.067, "y": 15.45, "prazision": 1.0, "typ": "gemeinde", "noten": null, "region0": "Steiermark", "region1": "Steiermark", "region2": "Mittelsteiermark", "Region2shortcut": "MS", "region3": "Mittelsteiermark" }, "geometry": { "type": "Point", "coordinates": [ 15.45, 47.067 ] } },
{ "type": "Feature", "properties": { "id": 135.0, "name": "Grobniki", "no_alle": 6.0, "no_activity": 0.0, "no_reise": 0.0, "no_bi": 4.0, "no_gg": 2.0, "x": 50.197, "y": 17.871, "prazision": 1.0, "typ": "gemeinde", "noten": null, "region0": "Schlesien", "region1": "Schlesien", "region2": "Troppauer Teil", "Region2shortcut": "TT", "region3": "Troppauer Teil" }, "geometry": { "type": "Point", "coordinates": [ 17.871, 50.197 ] } },
{ "type": "Feature", "properties": { "id": 136.0, "name": "Groißenbrunn", "no_alle": 2.0, "no_activity": 1.0, "no_reise": 1.0, "no_bi": 0.0, "no_gg": 0.0, "x": 48.223, "y": 16.902, "prazision": 1.0, "typ": "gemeinde", "noten": null, "region0": "Niederösterreich", "region1": "Niederösterreich", "region2": "Nordostniederösterreich", "Region2shortcut": "NONÖ", "region3": "Nordostniederösterreich" }, "geometry": { "type": "Point", "coordinates": [ 16.902, 48.223 ] } },
{ "type": "Feature", "properties": { "id": 137.0, "name": "Großjedlersdorf", "no_alle": 0.0, "no_activity": 0.0, "no_reise": 0.0, "no_bi": 0.0, "no_gg": 0.0, "x": 48.281, "y": 16.414, "prazision": 1.0, "typ": "gemeinde", "noten": null, "region0": "Niederösterreich", "region1": "Niederösterreich", "region2": "Nordostniederösterreich", "Region2shortcut": "NONÖ", "region3": "Nordostniederösterreich" }, "geometry": { "type": "Point", "coordinates": [ 16.414, 48.281 ] } },
{ "type": "Feature", "properties": { "id": 138.0, "name": "Groß-Enzersdorf", "no_alle": 3.0, "no_activity": 0.0, "no_reise": 0.0, "no_bi": 0.0, "no_gg": 3.0, "x": 48.197, "y": 16.551, "prazision": 1.0, "typ": "gemeinde", "noten": null, "region0": "Niederösterreich", "region1": "Niederösterreich", "region2": "Nordostniederösterreich", "Region2shortcut": "NONÖ", "region3": "Nordostniederösterreich" }, "geometry": { "type": "Point", "coordinates": [ 16.551, 48.197 ] } },
{ "type": "Feature", "properties": { "id": 139.0, "name": "Großotten", "no_alle": 2.0, "no_activity": 0.0, "no_reise": 0.0, "no_bi": 2.0, "no_gg": 0.0, "x": 48.643, "y": 14.981, "prazision": 1.0, "typ": "gemeinde", "noten": null, "region0": "Niederösterreich", "region1": "Niederösterreich", "region2": "Nordwestniederösterreich", "Region2shortcut": "NWNÖ", "region3": "Nordwestniederösterreich" }, "geometry": { "type": "Point", "coordinates": [ 14.981, 48.643 ] } },
{ "type": "Feature", "properties": { "id": 140.0, "name": "Grosspolen", "no_alle": 0.0, "no_activity": 0.0, "no_reise": 0.0, "no_bi": 0.0, "no_gg": 0.0, "x": null, "y": null, "prazision": 2.0, "typ": "region", "noten": null, "region0": "Ausland", "region1": "Pollen", "region2": "Grosspolen", "Region2shortcut": "GP", "region3": "Grosspolen" }, "geometry": null },
{ "type": "Feature", "properties": { "id": 141.0, "name": "Guntersdorf", "no_alle": 1.0, "no_activity": 0.0, "no_reise": 0.0, "no_bi": 0.0, "no_gg": 1.0, "x": 48.645, "y": 16.053, "prazision": 1.0, "typ": "gemeinde", "noten": null, "region0": "Niederösterreich", "region1": "Niederösterreich", "region2": "Nordostniederösterreich", "Region2shortcut": "NONÖ", "region3": "Nordostniederösterreich" }, "geometry": { "type": "Point", "coordinates": [ 16.053, 48.645 ] } },
{ "type": "Feature", "properties": { "id": 142.0, "name": "Gurk", "no_alle": 3.0, "no_activity": 0.0, "no_reise": 0.0, "no_bi": 2.0, "no_gg": 1.0, "x": 46.875, "y": 14.288, "prazision": 1.0, "typ": "gemeinde", "noten": null, "region0": "Kärnten", "region1": "Kärnten", "region2": "Ostkärnten (Ausland)", "Region2shortcut": "OK", "region3": "Ostkärnten (Ausland)" }, "geometry": { "type": "Point", "coordinates": [ 14.288, 46.875 ] } },
{ "type": "Feature", "properties": { "id": 143.0, "name": "Gwardeisk", "no_alle": 2.0, "no_activity": 1.0, "no_reise": 1.0, "no_bi": 0.0, "no_gg": 0.0, "x": 54.648, "y": 21.065, "prazision": 1.0, "typ": "gemeinde", "noten": null, "region0": "Ausland", "region1": "Preussen", "region2": "Preussen", "Region2shortcut": "Pre", "region3": "Preussen" }, "geometry": { "type": "Point", "coordinates": [ 21.065, 54.648 ] } },
{ "type": "Feature", "properties": { "id": 144.0, "name": "Györ", "no_alle": 3.0, "no_activity": 1.0, "no_reise": 1.0, "no_bi": 1.0, "no_gg": 0.0, "x": 47.688, "y": 17.635, "prazision": 1.0, "typ": "gemeinde", "noten": null, "region0": "Ungarn", "region1": "Ungarn", "region2": "Westungarn", "Region2shortcut": "WU", "region3": "Westungarn" }, "geometry": { "type": "Point", "coordinates": [ 17.635, 47.688 ] } },
{ "type": "Feature", "properties": { "id": 145.0, "name": "Haidershofen", "no_alle": 2.0, "no_activity": 0.0, "no_reise": 0.0, "no_bi": 0.0, "no_gg": 2.0, "x": 48.075, "y": 14.458, "prazision": 1.0, "typ": "gemeinde", "noten": null, "region0": "Oberösterreich", "region1": "Oberösterreich", "region2": "Oberösterreich", "Region2shortcut": "OÖ", "region3": "Oberösterreich" }, "geometry": { "type": "Point", "coordinates": [ 14.458, 48.075 ] } },
{ "type": "Feature", "properties": { "id": 146.0, "name": "Hainburg", "no_alle": 11.0, "no_activity": 5.0, "no_reise": 5.0, "no_bi": 0.0, "no_gg": 1.0, "x": 48.146, "y": 16.946, "prazision": 3.0, "typ": "gemeinde", "noten": null, "region0": "Niederösterreich", "region1": "Niederösterreich", "region2": "Südostniederösterreich", "Region2shortcut": "SONÖ", "region3": "Südostniederösterreich" }, "geometry": { "type": "Point", "coordinates": [ 16.946, 48.146 ] } },
{ "type": "Feature", "properties": { "id": 147.0, "name": "Halbenrein", "no_alle": 2.0, "no_activity": 0.0, "no_reise": 0.0, "no_bi": 1.0, "no_gg": 1.0, "x": 46.727, "y": 15.93, "prazision": 1.0, "typ": "gemeinde", "noten": null, "region0": "Steiermark", "region1": "Steiermark", "region2": "Mittelsteiermark", "Region2shortcut": "MS", "region3": "Mittelsteiermark" }, "geometry": { "type": "Point", "coordinates": [ 15.93, 46.727 ] } },
{ "type": "Feature", "properties": { "id": 148.0, "name": "Hardegg", "no_alle": 2.0, "no_activity": 0.0, "no_reise": 0.0, "no_bi": 2.0, "no_gg": 0.0, "x": 48.853, "y": 15.858, "prazision": 1.0, "typ": "gemeinde", "noten": null, "region0": "Niederösterreich", "region1": "Niederösterreich", "region2": "Nordwestniederösterreich", "Region2shortcut": "NWNÖ", "region3": "Nordwestniederösterreich" }, "geometry": { "type": "Point", "coordinates": [ 15.858, 48.853 ] } },
{ "type": "Feature", "properties": { "id": 149.0, "name": "Haringsee", "no_alle": 1.0, "no_activity": 0.0, "no_reise": 0.0, "no_bi": 0.0, "no_gg": 1.0, "x": 48.191, "y": 16.786, "prazision": 1.0, "typ": "gemeinde", "noten": null, "region0": "Niederösterreich", "region1": "Niederösterreich", "region2": "Nordostniederösterreich", "Region2shortcut": "NONÖ", "region3": "Nordostniederösterreich" }, "geometry": { "type": "Point", "coordinates": [ 16.786, 48.191 ] } },
{ "type": "Feature", "properties": { "id": 150.0, "name": "Hartberg", "no_alle": 2.0, "no_activity": 1.0, "no_reise": 1.0, "no_bi": 0.0, "no_gg": 0.0, "x": 47.281, "y": 15.97, "prazision": 1.0, "typ": "gemeinde", "noten": null, "region0": "Steiermark", "region1": "Steiermark", "region2": "Mittelsteiermark", "Region2shortcut": "MS", "region3": "Mittelsteiermark" }, "geometry": { "type": "Point", "coordinates": [ 15.97, 47.281 ] } },
{ "type": "Feature", "properties": { "id": 151.0, "name": "Haslau an der Donau", "no_alle": 1.0, "no_activity": 0.0, "no_reise": 0.0, "no_bi": 1.0, "no_gg": 0.0, "x": 48.118, "y": 16.719, "prazision": 1.0, "typ": "gemeinde", "noten": null, "region0": "Niederösterreich", "region1": "Niederösterreich", "region2": "Südostniederösterreich", "Region2shortcut": "SONÖ", "region3": "Südostniederösterreich" }, "geometry": { "type": "Point", "coordinates": [ 16.719, 48.118 ] } },
{ "type": "Feature", "properties": { "id": 152.0, "name": "Hassbach", "no_alle": 1.0, "no_activity": 0.0, "no_reise": 0.0, "no_bi": 1.0, "no_gg": 0.0, "x": 47.653, "y": 16.057, "prazision": 1.0, "typ": "gemeinde", "noten": null, "region0": "Niederösterreich", "region1": "Niederösterreich", "region2": "Südostniederösterreich", "Region2shortcut": "SONÖ", "region3": "Südostniederösterreich" }, "geometry": { "type": "Point", "coordinates": [ 16.057, 47.653 ] } },
{ "type": "Feature", "properties": { "id": 153.0, "name": "Havlíčkův Brod", "no_alle": 9.0, "no_activity": 3.0, "no_reise": 3.0, "no_bi": 2.0, "no_gg": 1.0, "x": 49.607, "y": 15.579, "prazision": 1.0, "typ": "gemeinde", "noten": null, "region0": "Böhmen", "region1": "Böhmen", "region2": "Böhmischmährische Höhe", "Region2shortcut": "BMH", "region3": "Böhmischmährische Höhe" }, "geometry": { "type": "Point", "coordinates": [ 15.579, 49.607 ] } },
{ "type": "Feature", "properties": { "id": 154.0, "name": "Heiligenkreuz", "no_alle": 15.0, "no_activity": 0.0, "no_reise": 0.0, "no_bi": 15.0, "no_gg": 0.0, "x": 48.056, "y": 16.131, "prazision": 1.0, "typ": "gemeinde", "noten": null, "region0": "Niederösterreich", "region1": "Niederösterreich", "region2": "Südostniederösterreich", "Region2shortcut": "SONÖ", "region3": "Südostniederösterreich" }, "geometry": { "type": "Point", "coordinates": [ 16.131, 48.056 ] } },
{ "type": "Feature", "properties": { "id": 155.0, "name": "Hejčín", "no_alle": 2.0, "no_activity": 0.0, "no_reise": 0.0, "no_bi": 0.0, "no_gg": 2.0, "x": 49.605, "y": 17.24, "prazision": 1.0, "typ": "gemeinde", "noten": null, "region0": "Mähren", "region1": "Mähren", "region2": "Olmützer Teil", "Region2shortcut": "OT", "region3": "Olmützer Teil" }, "geometry": { "type": "Point", "coordinates": [ 17.24, 49.605 ] } },
{ "type": "Feature", "properties": { "id": 156.0, "name": "Helfenstein", "no_alle": 1.0, "no_activity": 0.0, "no_reise": 0.0, "no_bi": 0.0, "no_gg": 1.0, "x": 47.09, "y": 15.192, "prazision": 1.0, "typ": "gemeinde", "noten": "hrad", "region0": "Steiermark", "region1": "Steiermark", "region2": "Mittelsteiermark", "Region2shortcut": "MS", "region3": "Mittelsteiermark" }, "geometry": { "type": "Point", "coordinates": [ 15.192, 47.09 ] } },
{ "type": "Feature", "properties": { "id": 157.0, "name": "Hennersdorf bei Wien", "no_alle": 1.0, "no_activity": 0.0, "no_reise": 0.0, "no_bi": 0.0, "no_gg": 1.0, "x": 48.111, "y": 16.36, "prazision": 1.0, "typ": "gemeinde", "noten": null, "region0": "Niederösterreich", "region1": "Wien", "region2": "Wien", "Region2shortcut": "Wi", "region3": "Wien" }, "geometry": { "type": "Point", "coordinates": [ 16.36, 48.111 ] } },
{ "type": "Feature", "properties": { "id": 158.0, "name": "Hernstein", "no_alle": 2.0, "no_activity": 0.0, "no_reise": 0.0, "no_bi": 0.0, "no_gg": 2.0, "x": 47.894, "y": 16.104, "prazision": 1.0, "typ": "gemeinde", "noten": null, "region0": "Niederösterreich", "region1": "Niederösterreich", "region2": "Südostniederösterreich", "Region2shortcut": "SONÖ", "region3": "Südostniederösterreich" }, "geometry": { "type": "Point", "coordinates": [ 16.104, 47.894 ] } },
{ "type": "Feature", "properties": { "id": 159.0, "name": "Herzogenbirbaum", "no_alle": 2.0, "no_activity": 1.0, "no_reise": 1.0, "no_bi": 0.0, "no_gg": 0.0, "x": 48.519, "y": 16.251, "prazision": 2.0, "typ": "gemeinde", "noten": null, "region0": "Niederösterreich", "region1": "Niederösterreich", "region2": "Nordostniederösterreich", "Region2shortcut": "NONÖ", "region3": "Nordostniederösterreich" }, "geometry": { "type": "Point", "coordinates": [ 16.251, 48.519 ] } },
{ "type": "Feature", "properties": { "id": 160.0, "name": "Heunburg", "no_alle": 1.0, "no_activity": 0.0, "no_reise": 0.0, "no_bi": 1.0, "no_gg": 0.0, "x": 46.694, "y": 14.67, "prazision": 1.0, "typ": "gemeinde", "noten": null, "region0": "Kärnten", "region1": "Kärnten", "region2": "Ostkärnten", "Region2shortcut": "OK", "region3": "Ostkärnten" }, "geometry": { "type": "Point", "coordinates": [ 14.67, 46.694 ] } },
{ "type": "Feature", "properties": { "id": 161.0, "name": "Hluboký", "no_alle": 0.0, "no_activity": 0.0, "no_reise": 0.0, "no_bi": 0.0, "no_gg": 0.0, "x": 49.516, "y": 14.036, "prazision": 2.0, "typ": "gemeinde", "noten": "zaniklé", "region0": "Böhmen", "region1": "Böhmen", "region2": "Südböhmen", "Region2shortcut": "SB", "region3": "Südböhmen" }, "geometry": { "type": "Point", "coordinates": [ 14.036, 49.516 ] } },
{ "type": "Feature", "properties": { "id": 162.0, "name": "Hlučín", "no_alle": 1.0, "no_activity": 0.0, "no_reise": 0.0, "no_bi": 1.0, "no_gg": 0.0, "x": 49.898, "y": 18.192, "prazision": 1.0, "typ": "gemeinde", "noten": null, "region0": "Schlesien", "region1": "Schlesien", "region2": "Troppauer Teil", "Region2shortcut": "TT", "region3": "Troppauer Teil" }, "geometry": { "type": "Point", "coordinates": [ 18.192, 49.898 ] } },
{ "type": "Feature", "properties": { "id": 163.0, "name": "Hněvkovice", "no_alle": 1.0, "no_activity": 0.0, "no_reise": 0.0, "no_bi": 1.0, "no_gg": 0.0, "x": 49.686, "y": 15.205, "prazision": 1.0, "typ": "gemeinde", "noten": null, "region0": "Böhmen", "region1": "Böhmen", "region2": "Böhmischmährische Höhe", "Region2shortcut": "BMH", "region3": "Böhmischmährische Höhe" }, "geometry": { "type": "Point", "coordinates": [ 15.205, 49.686 ] } },
{ "type": "Feature", "properties": { "id": 164.0, "name": "Hohenberg", "no_alle": 5.0, "no_activity": 0.0, "no_reise": 0.0, "no_bi": 5.0, "no_gg": 0.0, "x": 47.91, "y": 15.622, "prazision": 3.0, "typ": "gemeinde", "noten": null, "region0": "Niederösterreich", "region1": "Niederösterreich", "region2": "Südwestniederösterreich", "Region2shortcut": "SWNÖ", "region3": "Südwestniederösterreich" }, "geometry": { "type": "Point", "coordinates": [ 15.622, 47.91 ] } },
{ "type": "Feature", "properties": { "id": 165.0, "name": "Hohenwarth", "no_alle": 1.0, "no_activity": 0.0, "no_reise": 0.0, "no_bi": 0.0, "no_gg": 1.0, "x": 48.506, "y": 15.827, "prazision": 1.0, "typ": "gemeinde", "noten": null, "region0": "Niederösterreich", "region1": "Niederösterreich", "region2": "Nordostniederösterreich", "Region2shortcut": "NONÖ", "region3": "Nordostniederösterreich" }, "geometry": { "type": "Point", "coordinates": [ 15.827, 48.506 ] } },
{ "type": "Feature", "properties": { "id": 166.0, "name": "Holenstein an der Ybbs", "no_alle": 1.0, "no_activity": 0.0, "no_reise": 0.0, "no_bi": 0.0, "no_gg": 1.0, "x": 47.806, "y": 14.771, "prazision": 1.0, "typ": "gemeinde", "noten": null, "region0": "Niederösterreich", "region1": "Niederösterreich", "region2": "Südwestniederösterreich", "Region2shortcut": "SWNÖ", "region3": "Südwestniederösterreich" }, "geometry": { "type": "Point", "coordinates": [ 14.771, 47.806 ] } },
{ "type": "Feature", "properties": { "id": 167.0, "name": "Hořepník", "no_alle": 2.0, "no_activity": 0.0, "no_reise": 0.0, "no_bi": 1.0, "no_gg": 1.0, "x": 49.513, "y": 15.108, "prazision": 1.0, "typ": "gemeinde", "noten": null, "region0": "Böhmen", "region1": "Böhmen", "region2": "Böhmischmährische Höhe", "Region2shortcut": "BMH", "region3": "Böhmischmährische Höhe" }, "geometry": { "type": "Point", "coordinates": [ 15.108, 49.513 ] } },
{ "type": "Feature", "properties": { "id": 168.0, "name": "Hórky u Klatov", "no_alle": 2.0, "no_activity": 0.0, "no_reise": 0.0, "no_bi": 0.0, "no_gg": 2.0, "x": 49.396, "y": 13.295, "prazision": 2.0, "typ": "gemeinde", "noten": null, "region0": "Böhmen", "region1": "Böhmen", "region2": "Südwestböhmen", "Region2shortcut": "SWB", "region3": "Südwestböhmen" }, "geometry": { "type": "Point", "coordinates": [ 13.295, 49.396 ] } },
{ "type": "Feature", "properties": { "id": 169.0, "name": "Horn", "no_alle": 1.0, "no_activity": 0.0, "no_reise": 0.0, "no_bi": 1.0, "no_gg": 0.0, "x": 48.665, "y": 15.656, "prazision": 1.0, "typ": "gemeinde", "noten": null, "region0": "Niederösterreich", "region1": "Niederösterreich", "region2": "Nordwestniederösterreich", "Region2shortcut": "NWNÖ", "region3": "Nordwestniederösterreich" }, "geometry": { "type": "Point", "coordinates": [ 15.656, 48.665 ] } },
{ "type": "Feature", "properties": { "id": 170.0, "name": "Horní Slavkov", "no_alle": 1.0, "no_activity": 0.0, "no_reise": 0.0, "no_bi": 0.0, "no_gg": 1.0, "x": 50.139, "y": 12.808, "prazision": 1.0, "typ": "gemeinde", "noten": null, "region0": "Böhmen", "region1": "Böhmen", "region2": "Nordwestböhmen", "Region2shortcut": "NWB", "region3": "Nordwestböhmen" }, "geometry": { "type": "Point", "coordinates": [ 12.808, 50.139 ] } },
{ "type": "Feature", "properties": { "id": 171.0, "name": "Hradec Králové", "no_alle": 9.0, "no_activity": 4.0, "no_reise": 4.0, "no_bi": 1.0, "no_gg": 0.0, "x": 50.209, "y": 15.833, "prazision": 1.0, "typ": "gemeinde", "noten": null, "region0": "Böhmen", "region1": "Böhmen", "region2": "Nordostböhmen", "Region2shortcut": "NOB", "region3": "Nordostböhmen" }, "geometry": { "type": "Point", "coordinates": [ 15.833, 50.209 ] } },
{ "type": "Feature", "properties": { "id": 172.0, "name": "Hradec nad Moravicí", "no_alle": 6.0, "no_activity": 3.0, "no_reise": 3.0, "no_bi": 0.0, "no_gg": 0.0, "x": 49.871, "y": 17.875, "prazision": 1.0, "typ": "gemeinde", "noten": null, "region0": "Schlesien", "region1": "Schlesien", "region2": "Troppauer Teil", "Region2shortcut": "TT", "region3": "Troppauer Teil" }, "geometry": { "type": "Point", "coordinates": [ 17.875, 49.871 ] } },
{ "type": "Feature", "properties": { "id": 173.0, "name": "Hradisko u Olomouce", "no_alle": 0.0, "no_activity": 0.0, "no_reise": 0.0, "no_bi": 0.0, "no_gg": 0.0, "x": 49.606, "y": 17.265, "prazision": 3.0, "typ": "gemeinde", "noten": "Pokiaľ je to správne Hradisko, tak asi zjednotiť s Olomoucí", "region0": "Mähren", "region1": "Mähren", "region2": "Olmützer Teil", "Region2shortcut": "OT", "region3": "Olmützer Teil" }, "geometry": { "type": "Point", "coordinates": [ 17.265, 49.606 ] } },
{ "type": "Feature", "properties": { "id": 174.0, "name": "Hrdibořice", "no_alle": 1.0, "no_activity": 0.0, "no_reise": 0.0, "no_bi": 0.0, "no_gg": 1.0, "x": 49.478, "y": 17.22, "prazision": 1.0, "typ": "gemeinde", "noten": null, "region0": "Mähren", "region1": "Mähren", "region2": "Olmützer Teil", "Region2shortcut": "OT", "region3": "Olmützer Teil" }, "geometry": { "type": "Point", "coordinates": [ 17.22, 49.478 ] } },
{ "type": "Feature", "properties": { "id": 175.0, "name": "Hrušovany", "no_alle": 3.0, "no_activity": 0.0, "no_reise": 0.0, "no_bi": 0.0, "no_gg": 3.0, "x": 50.52, "y": 14.28, "prazision": 1.0, "typ": "gemeinde", "noten": null, "region0": "Böhmen", "region1": "Böhmen", "region2": "Nordböhmen", "Region2shortcut": "NB", "region3": "Nordböhmen" }, "geometry": { "type": "Point", "coordinates": [ 14.28, 50.52 ] } },
{ "type": "Feature", "properties": { "id": 176.0, "name": "Hulín", "no_alle": 1.0, "no_activity": 0.0, "no_reise": 0.0, "no_bi": 0.0, "no_gg": 1.0, "x": 49.317, "y": 17.464, "prazision": 1.0, "typ": "gemeinde", "noten": null, "region0": "Mähren", "region1": "Mähren", "region2": "Nordostmähren", "Region2shortcut": "NOM", "region3": "Nordostmähren" }, "geometry": { "type": "Point", "coordinates": [ 17.464, 49.317 ] } },
{ "type": "Feature", "properties": { "id": 177.0, "name": "Hundsheim", "no_alle": 2.0, "no_activity": 0.0, "no_reise": 0.0, "no_bi": 1.0, "no_gg": 1.0, "x": 48.387, "y": 15.558, "prazision": 1.0, "typ": "gemeinde", "noten": null, "region0": "Niederösterreich", "region1": "Niederösterreich", "region2": "Südwestniederösterreich", "Region2shortcut": "SWNÖ", "region3": "Südwestniederösterreich" }, "geometry": { "type": "Point", "coordinates": [ 15.558, 48.387 ] } },
{ "type": "Feature", "properties": { "id": 178.0, "name": "Hustopeče", "no_alle": 1.0, "no_activity": 0.0, "no_reise": 0.0, "no_bi": 1.0, "no_gg": 0.0, "x": 48.941, "y": 16.738, "prazision": 1.0, "typ": "gemeinde", "noten": null, "region0": "Mähren", "region1": "Mähren", "region2": "Brünner Teil", "Region2shortcut": "BT", "region3": "Brünner Teil" }, "geometry": { "type": "Point", "coordinates": [ 16.738, 48.941 ] } },
{ "type": "Feature", "properties": { "id": 179.0, "name": "Imbach", "no_alle": 4.0, "no_activity": 0.0, "no_reise": 0.0, "no_bi": 4.0, "no_gg": 0.0, "x": 48.439, "y": 15.576, "prazision": 1.0, "typ": "gemeinde", "noten": "Zjednotiť s Krems?", "region0": "Niederösterreich", "region1": "Niederösterreich", "region2": "Nordwestniederösterreich", "Region2shortcut": "NWNÖ", "region3": "Nordwestniederösterreich" }, "geometry": { "type": "Point", "coordinates": [ 15.576, 48.439 ] } },
{ "type": "Feature", "properties": { "id": 180.0, "name": "Italien", "no_alle": 0.0, "no_activity": 0.0, "no_reise": 0.0, "no_bi": 0.0, "no_gg": 0.0, "x": null, "y": null, "prazision": 2.0, "typ": "region", "noten": null, "region0": "Ausland", "region1": "Italien", "region2": "Italien", "Region2shortcut": "It", "region3": "Italien" }, "geometry": null },
{ "type": "Feature", "properties": { "id": 181.0, "name": "Jablonné v Podještědí", "no_alle": 2.0, "no_activity": 1.0, "no_reise": 1.0, "no_bi": 0.0, "no_gg": 0.0, "x": 50.765, "y": 14.76, "prazision": 1.0, "typ": "gemeinde", "noten": null, "region0": "Böhmen", "region1": "Böhmen", "region2": "Nordböhmen", "Region2shortcut": "NB", "region3": "Nordböhmen" }, "geometry": { "type": "Point", "coordinates": [ 14.76, 50.765 ] } },
{ "type": "Feature", "properties": { "id": 182.0, "name": "Jägerberg bei Steyr", "no_alle": 1.0, "no_activity": 0.0, "no_reise": 0.0, "no_bi": 1.0, "no_gg": 0.0, "x": 48.039, "y": 14.419, "prazision": 1.0, "typ": "gemeinde", "noten": null, "region0": "Oberösterreich", "region1": "Oberösterreich", "region2": "Oberösterreich", "Region2shortcut": "OÖ", "region3": "Oberösterreich" }, "geometry": { "type": "Point", "coordinates": [ 14.419, 48.039 ] } },
{ "type": "Feature", "properties": { "id": 183.0, "name": "Jaroměřice nad Rokytkou", "no_alle": 5.0, "no_activity": 2.0, "no_reise": 2.0, "no_bi": 1.0, "no_gg": 0.0, "x": 49.094, "y": 15.893, "prazision": 1.0, "typ": "gemeinde", "noten": "Jaromerice nad Rokytnou?", "region0": "Mähren", "region1": "Mähren", "region2": "Znaimer Teil", "Region2shortcut": "ZT", "region3": "Znaimer Teil" }, "geometry": { "type": "Point", "coordinates": [ 15.893, 49.094 ] } },
{ "type": "Feature", "properties": { "id": 184.0, "name": "Jedenspeigen", "no_alle": 4.0, "no_activity": 2.0, "no_reise": 2.0, "no_bi": 0.0, "no_gg": 0.0, "x": 48.499, "y": 16.872, "prazision": 1.0, "typ": "gemeinde", "noten": null, "region0": "Niederösterreich", "region1": "Niederösterreich", "region2": "Nordostniederösterreich", "Region2shortcut": "NONÖ", "region3": "Nordostniederösterreich" }, "geometry": { "type": "Point", "coordinates": [ 16.872, 48.499 ] } },
{ "type": "Feature", "properties": { "id": 185.0, "name": "Jemníky", "no_alle": 1.0, "no_activity": 0.0, "no_reise": 0.0, "no_bi": 0.0, "no_gg": 1.0, "x": 50.206, "y": 14.118, "prazision": 1.0, "typ": "gemeinde", "noten": null, "region0": "Böhmen", "region1": "Böhmen", "region2": "Mittelböhmen", "Region2shortcut": "MB", "region3": "Mittelböhmen" }, "geometry": { "type": "Point", "coordinates": [ 14.118, 50.206 ] } },
{ "type": "Feature", "properties": { "id": 186.0, "name": "Jeneč", "no_alle": 1.0, "no_activity": 0.0, "no_reise": 0.0, "no_bi": 0.0, "no_gg": 1.0, "x": 50.088, "y": 14.213, "prazision": 1.0, "typ": "gemeinde", "noten": null, "region0": "Böhmen", "region1": "Böhmen", "region2": "Mittelböhmen", "Region2shortcut": "MB", "region3": "Mittelböhmen" }, "geometry": { "type": "Point", "coordinates": [ 14.213, 50.088 ] } },
{ "type": "Feature", "properties": { "id": 187.0, "name": "Jevíčko", "no_alle": 1.0, "no_activity": 0.0, "no_reise": 0.0, "no_bi": 1.0, "no_gg": 0.0, "x": 49.632, "y": 16.711, "prazision": 1.0, "typ": "gemeinde", "noten": null, "region0": "Mähren", "region1": "Mähren", "region2": "Olmützer Teil", "Region2shortcut": "OT", "region3": "Olmützer Teil" }, "geometry": { "type": "Point", "coordinates": [ 16.711, 49.632 ] } },
{ "type": "Feature", "properties": { "id": 188.0, "name": "Jihlava", "no_alle": 17.0, "no_activity": 7.0, "no_reise": 6.0, "no_bi": 4.0, "no_gg": 0.0, "x": 49.396, "y": 15.591, "prazision": 1.0, "typ": "gemeinde", "noten": null, "region0": "Böhmen", "region1": "Böhmen", "region2": "Böhmischmährische Höhe", "Region2shortcut": "BMH", "region3": "Böhmischmährische Höhe" }, "geometry": { "type": "Point", "coordinates": [ 15.591, 49.396 ] } },
{ "type": "Feature", "properties": { "id": 189.0, "name": "Jindřichův Hradec", "no_alle": 3.0, "no_activity": 1.0, "no_reise": 1.0, "no_bi": 1.0, "no_gg": 0.0, "x": 49.144, "y": 15.003, "prazision": 1.0, "typ": "gemeinde", "noten": null, "region0": "Böhmen", "region1": "Böhmen", "region2": "Südböhmen", "Region2shortcut": "SB", "region3": "Südböhmen" }, "geometry": { "type": "Point", "coordinates": [ 15.003, 49.144 ] } },
{ "type": "Feature", "properties": { "id": 190.0, "name": "Judenburg", "no_alle": 17.0, "no_activity": 6.0, "no_reise": 6.0, "no_bi": 5.0, "no_gg": 0.0, "x": 47.167, "y": 14.667, "prazision": 1.0, "typ": "gemeinde", "noten": null, "region0": "Steiermark", "region1": "Steiermark", "region2": "Nordsteiermark", "Region2shortcut": "NS", "region3": "Nordsteiermark" }, "geometry": { "type": "Point", "coordinates": [ 14.667, 47.167 ] } },
{ "type": "Feature", "properties": { "id": 191.0, "name": "Jundrov", "no_alle": 1.0, "no_activity": 0.0, "no_reise": 0.0, "no_bi": 0.0, "no_gg": 1.0, "x": 49.208, "y": 16.545, "prazision": 1.0, "typ": "gemeinde", "noten": null, "region0": "Mähren", "region1": "Mähren", "region2": "Brünner Teil", "Region2shortcut": "BT", "region3": "Brünner Teil" }, "geometry": { "type": "Point", "coordinates": [ 16.545, 49.208 ] } },
{ "type": "Feature", "properties": { "id": 192.0, "name": "Kadaň", "no_alle": 2.0, "no_activity": 0.0, "no_reise": 0.0, "no_bi": 2.0, "no_gg": 0.0, "x": 50.376, "y": 13.271, "prazision": 1.0, "typ": "gemeinde", "noten": null, "region0": "Böhmen", "region1": "Böhmen", "region2": "Nordwestböhmen", "Region2shortcut": "NWB", "region3": "Nordwestböhmen" }, "geometry": { "type": "Point", "coordinates": [ 13.271, 50.376 ] } },
{ "type": "Feature", "properties": { "id": 193.0, "name": "Kahlenberg (heute Leopoldberg)", "no_alle": 1.0, "no_activity": 1.0, "no_reise": 0.0, "no_bi": 0.0, "no_gg": 0.0, "x": 48.278, "y": 16.346, "prazision": 1.0, "typ": "gemeinde", "noten": null, "region0": "Niederösterreich", "region1": "Wien", "region2": "Wien", "Region2shortcut": "Wi", "region3": "Wien" }, "geometry": { "type": "Point", "coordinates": [ 16.346, 48.278 ] } },
{ "type": "Feature", "properties": { "id": 194.0, "name": "Kaliningrad", "no_alle": 2.0, "no_activity": 1.0, "no_reise": 1.0, "no_bi": 0.0, "no_gg": 0.0, "x": 54.706, "y": 20.511, "prazision": 1.0, "typ": "gemeinde", "noten": null, "region0": "Ausland", "region1": "Preussen", "region2": "Preussen", "Region2shortcut": "Pre", "region3": "Preussen" }, "geometry": { "type": "Point", "coordinates": [ 20.511, 54.706 ] } },
{ "type": "Feature", "properties": { "id": 195.0, "name": "Kalisz", "no_alle": 2.0, "no_activity": 1.0, "no_reise": 1.0, "no_bi": 0.0, "no_gg": 0.0, "x": 51.762, "y": 18.09, "prazision": 1.0, "typ": "gemeinde", "noten": null, "region0": "Ausland", "region1": "Pollen", "region2": "Pollen", "Region2shortcut": "Po", "region3": "Pollen" }, "geometry": { "type": "Point", "coordinates": [ 18.09, 51.762 ] } },
{ "type": "Feature", "properties": { "id": 197.0, "name": "Kamnik", "no_alle": 1.0, "no_activity": 0.0, "no_reise": 0.0, "no_bi": 1.0, "no_gg": 0.0, "x": 46.223, "y": 14.606, "prazision": 1.0, "typ": "gemeinde", "noten": null, "region0": "Krain + Aquileia", "region1": "Krain", "region2": "Krain", "Region2shortcut": "Kr", "region3": "Krain" }, "geometry": { "type": "Point", "coordinates": [ 14.606, 46.223 ] } },
{ "type": "Feature", "properties": { "id": 198.0, "name": "Kamýk nad Vltavou", "no_alle": 8.0, "no_activity": 4.0, "no_reise": 4.0, "no_bi": 0.0, "no_gg": 0.0, "x": 49.639, "y": 14.253, "prazision": 1.0, "typ": "gemeinde", "noten": null, "region0": "Böhmen", "region1": "Böhmen", "region2": "Mittelböhmen", "Region2shortcut": "MB", "region3": "Mittelböhmen" }, "geometry": { "type": "Point", "coordinates": [ 14.253, 49.639 ] } },
{ "type": "Feature", "properties": { "id": 199.0, "name": "Kappling", "no_alle": 1.0, "no_activity": 0.0, "no_reise": 0.0, "no_bi": 1.0, "no_gg": 0.0, "x": 48.144, "y": 13.902, "prazision": 1.0, "typ": "gemeinde", "noten": null, "region0": "Oberösterreich", "region1": "Oberösterreich", "region2": "Oberösterreich", "Region2shortcut": "OÖ", "region3": "Oberösterreich" }, "geometry": { "type": "Point", "coordinates": [ 13.902, 48.144 ] } },
{ "type": "Feature", "properties": { "id": 200.0, "name": "Kärnten", "no_alle": 1.0, "no_activity": 0.0, "no_reise": 0.0, "no_bi": 1.0, "no_gg": 0.0, "x": null, "y": null, "prazision": 2.0, "typ": "region", "noten": null, "region0": "Kärnten", "region1": "Kärnten", "region2": "Kärnten", "Region2shortcut": "Kä", "region3": "Kärnten" }, "geometry": null },
{ "type": "Feature", "properties": { "id": 202.0, "name": "Kienberg", "no_alle": 1.0, "no_activity": 0.0, "no_reise": 0.0, "no_bi": 0.0, "no_gg": 1.0, "x": 46.777, "y": 14.77, "prazision": 1.0, "typ": "gemeinde", "noten": null, "region0": "Kärnten", "region1": "Kärnten", "region2": "Westkärnten", "Region2shortcut": "WK", "region3": "Westkärnten" }, "geometry": { "type": "Point", "coordinates": [ 14.77, 46.777 ] } },
{ "type": "Feature", "properties": { "id": 203.0, "name": "Kirchberg am Wechsel", "no_alle": 1.0, "no_activity": 0.0, "no_reise": 0.0, "no_bi": 1.0, "no_gg": 0.0, "x": 47.61, "y": 15.989, "prazision": 1.0, "typ": "gemeinde", "noten": null, "region0": "Niederösterreich", "region1": "Niederösterreich", "region2": "Südostniederösterreich", "Region2shortcut": "SONÖ", "region3": "Südostniederösterreich" }, "geometry": { "type": "Point", "coordinates": [ 15.989, 47.61 ] } },
{ "type": "Feature", "properties": { "id": 204.0, "name": "Kircheim unter Teck", "no_alle": 1.0, "no_activity": 0.0, "no_reise": 0.0, "no_bi": 0.0, "no_gg": 1.0, "x": 48.647, "y": 9.45, "prazision": 1.0, "typ": "gemeinde", "noten": null, "region0": "Niederösterreich", "region1": "Niederösterreich", "region2": "Nordostniederösterreich", "Region2shortcut": "NONÖ", "region3": "Nordostniederösterreich" }, "geometry": { "type": "Point", "coordinates": [ 9.45, 48.647 ] } },
{ "type": "Feature", "properties": { "id": 205.0, "name": "Kladruby", "no_alle": 6.0, "no_activity": 2.0, "no_reise": 2.0, "no_bi": 2.0, "no_gg": 0.0, "x": 49.712, "y": 12.995, "prazision": 3.0, "typ": "gemeinde", "noten": null, "region0": "Böhmen", "region1": "Böhmen", "region2": "Südwestböhmen", "Region2shortcut": "SWB", "region3": "Südwestböhmen" }, "geometry": { "type": "Point", "coordinates": [ 12.995, 49.712 ] } },
{ "type": "Feature", "properties": { "id": 206.0, "name": "Klagenfurt", "no_alle": 2.0, "no_activity": 0.0, "no_reise": 0.0, "no_bi": 0.0, "no_gg": 2.0, "x": 46.624, "y": 14.31, "prazision": 1.0, "typ": "gemeinde", "noten": null, "region0": "Kärnten", "region1": "Kärnten", "region2": "Ostkärnten", "Region2shortcut": "OK", "region3": "Ostkärnten" }, "geometry": { "type": "Point", "coordinates": [ 14.31, 46.624 ] } },
{ "type": "Feature", "properties": { "id": 207.0, "name": "Klatovy", "no_alle": 2.0, "no_activity": 0.0, "no_reise": 0.0, "no_bi": 2.0, "no_gg": 0.0, "x": 49.396, "y": 13.295, "prazision": 1.0, "typ": "gemeinde", "noten": null, "region0": "Böhmen", "region1": "Böhmen", "region2": "Südwestböhmen", "Region2shortcut": "SWB", "region3": "Südwestböhmen" }, "geometry": { "type": "Point", "coordinates": [ 13.295, 49.396 ] } },
{ "type": "Feature", "properties": { "id": 208.0, "name": "Kleinweikersdorf", "no_alle": 3.0, "no_activity": 1.0, "no_reise": 1.0, "no_bi": 0.0, "no_gg": 1.0, "x": 48.631, "y": 16.198, "prazision": 1.0, "typ": "gemeinde", "noten": null, "region0": "Niederösterreich", "region1": "Niederösterreich", "region2": "Nordostniederösterreich", "Region2shortcut": "NONÖ", "region3": "Nordostniederösterreich" }, "geometry": { "type": "Point", "coordinates": [ 16.198, 48.631 ] } },
{ "type": "Feature", "properties": { "id": 209.0, "name": "Kleinzwettl", "no_alle": 1.0, "no_activity": 0.0, "no_reise": 0.0, "no_bi": 0.0, "no_gg": 1.0, "x": 48.881, "y": 15.215, "prazision": 1.0, "typ": "gemeinde", "noten": null, "region0": "Niederösterreich", "region1": "Niederösterreich", "region2": "Nordwestniederösterreich", "Region2shortcut": "NWNÖ", "region3": "Nordwestniederösterreich" }, "geometry": { "type": "Point", "coordinates": [ 15.215, 48.881 ] } },
{ "type": "Feature", "properties": { "id": 210.0, "name": "Klevevž (Klingenfels)", "no_alle": 1.0, "no_activity": 0.0, "no_reise": 0.0, "no_bi": 1.0, "no_gg": 0.0, "x": 45.907, "y": 15.233, "prazision": 2.0, "typ": "gemeinde", "noten": null, "region0": "Krain + Aquileia", "region1": "Krain", "region2": "Krain", "Region2shortcut": "Kr", "region3": "Krain" }, "geometry": { "type": "Point", "coordinates": [ 15.233, 45.907 ] } },
{ "type": "Feature", "properties": { "id": 211.0, "name": "Kłodzko", "no_alle": 3.0, "no_activity": 0.0, "no_reise": 0.0, "no_bi": 3.0, "no_gg": 0.0, "x": 50.435, "y": 16.661, "prazision": 1.0, "typ": "gemeinde", "noten": null, "region0": "Böhmen", "region1": "Böhmen", "region2": "Nordostböhmen", "Region2shortcut": "NOB", "region3": "Nordostböhmen" }, "geometry": { "type": "Point", "coordinates": [ 16.661, 50.435 ] } },
{ "type": "Feature", "properties": { "id": 212.0, "name": "Klosterneuburg", "no_alle": 9.0, "no_activity": 0.0, "no_reise": 0.0, "no_bi": 8.0, "no_gg": 1.0, "x": 48.305, "y": 16.325, "prazision": 1.0, "typ": "gemeinde", "noten": null, "region0": "Niederösterreich", "region1": "Wien", "region2": "Wien", "Region2shortcut": "Wi", "region3": "Wien" }, "geometry": { "type": "Point", "coordinates": [ 16.325, 48.305 ] } },
{ "type": "Feature", "properties": { "id": 213.0, "name": "Knínice - Konice", "no_alle": 1.0, "no_activity": 0.0, "no_reise": 0.0, "no_bi": 0.0, "no_gg": 1.0, "x": 49.569, "y": 16.793, "prazision": 2.0, "typ": "gemeinde", "noten": "oblast", "region0": "Mähren", "region1": "Mähren", "region2": "Olmützer Teil", "Region2shortcut": "OT", "region3": "Olmützer Teil" }, "geometry": { "type": "Point", "coordinates": [ 16.793, 49.569 ] } },
{ "type": "Feature", "properties": { "id": 214.0, "name": "Knittelfeld", "no_alle": 1.0, "no_activity": 0.0, "no_reise": 0.0, "no_bi": 1.0, "no_gg": 0.0, "x": 47.2, "y": 14.836, "prazision": 1.0, "typ": "gemeinde", "noten": null, "region0": "Steiermark", "region1": "Steiermark", "region2": "Nordsteiermark", "Region2shortcut": "NS", "region3": "Nordsteiermark" }, "geometry": { "type": "Point", "coordinates": [ 14.836, 47.2 ] } },
{ "type": "Feature", "properties": { "id": 215.0, "name": "Kolín", "no_alle": 1.0, "no_activity": 0.0, "no_reise": 0.0, "no_bi": 1.0, "no_gg": 0.0, "x": 50.028, "y": 15.203, "prazision": 1.0, "typ": "gemeinde", "noten": null, "region0": "Böhmen", "region1": "Böhmen", "region2": "Ostböhmen", "Region2shortcut": "OB", "region3": "Ostböhmen" }, "geometry": { "type": "Point", "coordinates": [ 15.203, 50.028 ] } },
{ "type": "Feature", "properties": { "id": 216.0, "name": "Königsbrunn am Wagram", "no_alle": 3.0, "no_activity": 0.0, "no_reise": 0.0, "no_bi": 3.0, "no_gg": 0.0, "x": 48.387, "y": 15.932, "prazision": 1.0, "typ": "gemeinde", "noten": null, "region0": "Niederösterreich", "region1": "Niederösterreich", "region2": "Nordostniederösterreich", "Region2shortcut": "NONÖ", "region3": "Nordostniederösterreich" }, "geometry": { "type": "Point", "coordinates": [ 15.932, 48.387 ] } },
{ "type": "Feature", "properties": { "id": 217.0, "name": "Korneuburg", "no_alle": 8.0, "no_activity": 7.0, "no_reise": 0.0, "no_bi": 1.0, "no_gg": 0.0, "x": 48.34, "y": 16.33, "prazision": 1.0, "typ": "gemeinde", "noten": null, "region0": "Niederösterreich", "region1": "Wien", "region2": "Wien", "Region2shortcut": "Wi", "region3": "Wien" }, "geometry": { "type": "Point", "coordinates": [ 16.33, 48.34 ] } },
{ "type": "Feature", "properties": { "id": 218.0, "name": "Kostanjevica na Krki", "no_alle": 9.0, "no_activity": 2.0, "no_reise": 2.0, "no_bi": 4.0, "no_gg": 1.0, "x": 45.846, "y": 15.42, "prazision": 1.0, "typ": "gemeinde", "noten": null, "region0": "Krain + Aquileia", "region1": "Krain", "region2": "Krain", "Region2shortcut": "Kr", "region3": "Krain" }, "geometry": { "type": "Point", "coordinates": [ 15.42, 45.846 ] } },
{ "type": "Feature", "properties": { "id": 219.0, "name": "Kostelec", "no_alle": 1.0, "no_activity": 0.0, "no_reise": 0.0, "no_bi": 0.0, "no_gg": 1.0, "x": 50.151, "y": 17.671, "prazision": 4.0, "typ": "gemeinde", "noten": "část dnešní obce Radynia", "region0": "Schlesien", "region1": "Schlesien", "region2": "Troppauer Teil", "Region2shortcut": "TT", "region3": "Troppauer Teil" }, "geometry": { "type": "Point", "coordinates": [ 17.671, 50.151 ] } },
{ "type": "Feature", "properties": { "id": 220.0, "name": "Kostelní Myslová", "no_alle": 1.0, "no_activity": 0.0, "no_reise": 0.0, "no_bi": 0.0, "no_gg": 1.0, "x": 49.148, "y": 15.429, "prazision": 1.0, "typ": "gemeinde", "noten": null, "region0": "Böhmen", "region1": "Böhmen", "region2": "Böhmischmährische Höhe", "Region2shortcut": "BMH", "region3": "Böhmischmährische Höhe" }, "geometry": { "type": "Point", "coordinates": [ 15.429, 49.148 ] } },
{ "type": "Feature", "properties": { "id": 221.0, "name": "Kouřim", "no_alle": 1.0, "no_activity": 0.0, "no_reise": 0.0, "no_bi": 1.0, "no_gg": 0.0, "x": 50.003, "y": 14.976, "prazision": 1.0, "typ": "gemeinde", "noten": null, "region0": "Böhmen", "region1": "Böhmen", "region2": "Ostböhmen", "Region2shortcut": "OB", "region3": "Ostböhmen" }, "geometry": { "type": "Point", "coordinates": [ 14.976, 50.003 ] } },
{ "type": "Feature", "properties": { "id": 222.0, "name": "Kozłówki", "no_alle": 1.0, "no_activity": 0.0, "no_reise": 0.0, "no_bi": 0.0, "no_gg": 1.0, "x": 50.089, "y": 17.968, "prazision": 1.0, "typ": "gemeinde", "noten": null, "region0": "Schlesien", "region1": "Schlesien", "region2": "Troppauer Teil", "Region2shortcut": "TT", "region3": "Troppauer Teil" }, "geometry": { "type": "Point", "coordinates": [ 17.968, 50.089 ] } },
{ "type": "Feature", "properties": { "id": 223.0, "name": "Krain", "no_alle": 2.0, "no_activity": 1.0, "no_reise": 1.0, "no_bi": 0.0, "no_gg": 0.0, "x": null, "y": null, "prazision": 2.0, "typ": "region", "noten": null, "region0": "Krain + Aquileia", "region1": "Krain", "region2": "Krain", "Region2shortcut": "Kr", "region3": "Krain" }, "geometry": null },
{ "type": "Feature", "properties": { "id": 224.0, "name": "Krakauer Land", "no_alle": 0.0, "no_activity": 0.0, "no_reise": 0.0, "no_bi": 0.0, "no_gg": 0.0, "x": null, "y": null, "prazision": 2.0, "typ": "region", "noten": null, "region0": "Ausland", "region1": "Pollen", "region2": "Krakauer Land", "Region2shortcut": "KL", "region3": "Krakauer Land" }, "geometry": null },
{ "type": "Feature", "properties": { "id": 225.0, "name": "Kraków", "no_alle": 2.0, "no_activity": 0.0, "no_reise": 0.0, "no_bi": 2.0, "no_gg": 0.0, "x": 50.061, "y": 19.937, "prazision": 1.0, "typ": "gemeinde", "noten": null, "region0": "Ausland", "region1": "Pollen", "region2": "Krakauer Land", "Region2shortcut": "KL", "region3": "Krakauer Land" }, "geometry": { "type": "Point", "coordinates": [ 19.937, 50.061 ] } },
{ "type": "Feature", "properties": { "id": 226.0, "name": "Kralice", "no_alle": 1.0, "no_activity": 0.0, "no_reise": 0.0, "no_bi": 0.0, "no_gg": 1.0, "x": 49.199, "y": 16.201, "prazision": 1.0, "typ": "gemeinde", "noten": null, "region0": "Mähren", "region1": "Mähren", "region2": "Olmützer Teil", "Region2shortcut": "OT", "region3": "Olmützer Teil" }, "geometry": { "type": "Point", "coordinates": [ 16.201, 49.199 ] } },
{ "type": "Feature", "properties": { "id": 227.0, "name": "Kraslice", "no_alle": 1.0, "no_activity": 0.0, "no_reise": 0.0, "no_bi": 0.0, "no_gg": 1.0, "x": 50.324, "y": 12.517, "prazision": 1.0, "typ": "gemeinde", "noten": null, "region0": "Böhmen", "region1": "Böhmen", "region2": "Nordwestböhmen", "Region2shortcut": "NWB", "region3": "Nordwestböhmen" }, "geometry": { "type": "Point", "coordinates": [ 12.517, 50.324 ] } },
{ "type": "Feature", "properties": { "id": 228.0, "name": "Kravaře u České Lípy", "no_alle": 3.0, "no_activity": 1.0, "no_reise": 1.0, "no_bi": 1.0, "no_gg": 0.0, "x": 50.632, "y": 14.392, "prazision": 1.0, "typ": "gemeinde", "noten": null, "region0": "Böhmen", "region1": "Böhmen", "region2": "Nordböhmen", "Region2shortcut": "NB", "region3": "Nordböhmen" }, "geometry": { "type": "Point", "coordinates": [ 14.392, 50.632 ] } },
{ "type": "Feature", "properties": { "id": 229.0, "name": "Krems an der Donau", "no_alle": 73.0, "no_activity": 30.0, "no_reise": 30.0, "no_bi": 6.0, "no_gg": 7.0, "x": 48.41, "y": 15.62, "prazision": 1.0, "typ": "gemeinde", "noten": null, "region0": "Niederösterreich", "region1": "Niederösterreich", "region2": "Nordwestniederösterreich", "Region2shortcut": "NWNÖ", "region3": "Nordwestniederösterreich" }, "geometry": { "type": "Point", "coordinates": [ 15.62, 48.41 ] } },